ride_id,rideable_type,started_at,ended_at,start_station_name,start_station_id,end_station_name,end_station_id,start_lat,start_lng,end_lat,end_lng,member_casual,ride_duration,hour,ride_distance_km,trip_distance_km,ride_speed_kmph,ride_time_bin,station_cluster,day_of_week,is_weekend,is_peak_hour,month,season
8AC82DE4444CE80A,classic_bike,2023-01-10 08:23:01.720,2023-01-10 08:30:47.408,Dean St & Hoyt St,4446.05,Clark St & Henry St,4789.03,40.6864442,-73.98759104,40.69760127,-73.99344559,member,7.761466666666666,8,1.3351984054133257,1.3351984054133257,10.321748165054656,Morning,4,1,0,1,1,Winter
FF66BDA6FE69943F,classic_bike,2023-01-13 15:03:08.822,2023-01-13 15:14:49.191,Ashland Pl & Dekalb Ave,4513.09,Bergen St & Vanderbilt Ave,4157.1,40.690065,-73.978776,40.6794388,-73.9680438,member,11.672816666666668,15,1.4883026189457047,1.4883026189457047,7.6500950616097185,Midday,4,4,0,0,1,Winter
6E986E868B266019,classic_bike,2023-01-01 13:24:43.385,2023-01-01 13:39:49.756,Irving Ave & Jefferson St,5051.02,Grand St & Havemeyer St,5267.08,40.70538,-73.92535,40.71286844,-73.95698119,member,15.106183333333332,13,2.793168599857562,2.793168599857562,11.094140213540838,Midday,3,6,1,0,1,Winter
EC6EE86C7A17D7F6,electric_bike,2023-01-13 15:47:13.284,2023-01-13 15:54:51.728,E 31 St & 3 Ave,6239.08,W 11 St & 6 Ave,5914.03,40.74394314,-73.97966069,40.73532427,-73.99800419,member,7.640733333333333,15,1.818487123774593,1.818487123774593,14.279941815333029,Midday,0,4,0,0,1,Winter
BD69BA602F904E2B,classic_bike,2023-01-12 16:03:08.475,2023-01-12 16:12:58.401,Forsyth St & Grand St,5382.07,6 Ave & Broome St,5610.09,40.71779817737835,-73.99316132068634,40.72431,-74.00473,member,9.8321,16,1.214413838191109,1.214413838191109,7.410912245752844,Midday,0,3,0,1,1,Winter
315B2C0FEFABE770,classic_bike,2023-01-08 18:40:26.064,2023-01-08 18:45:29.661,Brooklyn Ave & Dean St,4131.03,Eastern Pkwy & Kingston Ave,3902.06,40.67669,-73.94437,40.66959,-73.94237,member,5.05995,18,0.8073006273332425,0.8073006273332425,9.572829304636322,Evening,4,6,1,1,1,Winter
AE8FE9FAB838CC7F,electric_bike,2023-01-10 23:59:35.869,2023-01-11 00:08:50.293,Lenox Ave & W 117 St,7655.22,St. Nicholas Ave & W 126 St,7756.1,40.8025566,-73.9490782,40.8114323,-73.9518776,member,9.2404,23,1.0146671055851082,1.0146671055851082,6.5884622240494455,Night,1,1,0,0,1,Winter
C032E0F165B43190,classic_bike,2023-01-12 13:30:47.272,2023-01-12 13:36:57.892,W 59 St & 10 Ave,7023.04,W 70 St & Amsterdam Ave,7207.08,40.770513,-73.988038,40.77748046,-73.98288594,member,6.1770000000000005,13,0.8879461117654898,0.8879461117654898,8.625022940898393,Midday,1,3,0,0,1,Winter
7C85CCB8A386E32E,classic_bike,2023-01-04 08:48:00.372,2023-01-04 08:50:24.241,W 15 St & 6 Ave,5989.02,8 Ave & W 16 St,6072.11,40.738046142482766,-73.99642959237099,40.740983,-74.001702,member,2.3978166666666665,8,0.5513264722435307,0.5513264722435307,13.795712071931485,Morning,0,2,0,1,1,Winter
E8FC9D6366DBE88E,electric_bike,2023-01-08 16:17:36.417,2023-01-08 16:28:43.033,Wythe Ave & Metropolitan Ave,5348.02,Leonard St & Boerum St,5036.06,40.716887,-73.963198,40.70583339,-73.94644578,member,11.110266666666666,16,1.8720030870377964,1.8720030870377964,10.109584998463983,Midday,0,6,1,1,1,Winter
7F577DA6457C2024,electric_bike,2023-01-08 05:48:15.508,2023-01-08 05:53:53.412,Ave D & E 8 St,5506.1,E 9 St & 5 Ave,5872.1,40.72368361,-73.97574813,40.73275887045087,-73.99581670761108,member,5.631733333333333,5,1.9692825884160503,1.9692825884160503,20.98056642803217,Morning,0,6,1,0,1,Winter
C96586C647009B8A,electric_bike,2023-01-01 21:13:04.083,2023-01-01 21:23:22.272,Prospect Park West & 8 St,3722.04,Sterling Pl & Bedford Ave,3993.03,40.66514681533792,-73.97637605667114,40.672695,-73.954131,member,10.30315,21,2.0553321672794085,2.0553321672794085,11.969148273757492,Night,4,6,1,0,1,Winter
C7404CFC186B4BA4,electric_bike,2023-01-04 23:03:16.320,2023-01-04 23:10:13.555,E 115 St & Madison Ave,7599.02,St Nicholas Ave & Manhattan Ave,7723.01,40.7989445,-73.944846,40.809725,-73.953149,member,6.953916666666667,23,1.3875745419856524,1.3875745419856524,11.972313806723664,Night,1,2,0,0,1,Winter
E6D041822673D67A,classic_bike,2023-01-12 07:56:56.720,2023-01-12 08:03:05.872,E 41 St & Madison Ave (SE corner),6432.1,W 47 St & 6 Ave,6667.04,40.752049,-73.979635,40.758397,-73.98255,member,6.152533333333333,7,0.7473501541793195,0.7473501541793195,7.288218823263994,Morning,0,3,0,1,1,Winter
42E49F7639499911,classic_bike,2023-01-13 19:29:54.556,2023-01-13 19:48:08.466,Howard St & Lafayette St,5422.04,Barclay St & Church St,5216.04,40.71910537,-73.99973337,40.71291224,-74.01020234,casual,18.23183333333333,19,1.1192570713688792,1.1192570713688792,3.6834158723550985,Evening,0,4,0,1,1,Winter
A56FEFDDB1BF03B8,electric_bike,2023-01-08 21:53:14.317,2023-01-08 22:00:34.266,E 106 St & Madison Ave,7528.31,5 Ave & E 93 St,7372.1,40.7934337,-73.94945003,40.7857851,-73.957481,member,7.332483333333333,21,1.0864820519973457,1.0864820519973457,8.890429088804483,Night,1,6,1,0,1,Winter
6A2B725981937EAA,electric_bike,2023-01-01 14:34:10.907,2023-01-01 15:07:17.624,Washington St & Gansevoort St,6039.06,Dock St & Front St,4903.09,40.739323,-74.008119,40.702709,-73.99253,casual,33.11195,14,4.278007297725883,4.278007297725883,7.751897362237891,Midday,0,6,1,0,1,Winter
1B56CE9459CAFED6,classic_bike,2023-01-04 17:50:45.694,2023-01-04 18:00:54.811,Clinton St & Grand St,5303.06,Ave A & E 14 St,5779.11,40.71559509,-73.9870295,40.73031071000895,-73.98047178983688,member,10.15195,17,1.727102762362824,1.727102762362824,10.207513407943246,Evening,0,2,0,1,1,Winter
B50CD4EA290CDB74,electric_bike,2023-01-08 16:28:19.557,2023-01-08 16:36:17.675,14 St & 5 Ave,3771.06,Prospect Park SW & 10 Ave,3611.02,40.666287,-73.98895053,40.659945,-73.977504,member,7.968633333333333,16,1.1956022978306302,1.1956022978306302,9.002313805776543,Midday,4,6,1,1,1,Winter
9FC645E56A05AFFE,classic_bike,2023-01-03 17:16:29.986,2023-01-03 17:33:48.547,Reade St & Broadway,5247.1,Stanton St & Mangin St,5326.06,40.71450451,-74.00562789,40.71782143,-73.97628939,member,17.30935,17,2.500011494511583,2.500011494511583,8.66587651591163,Evening,0,1,0,1,1,Winter
4EF909B2BB9A56E9,electric_bike,2023-01-13 16:19:58.356,2023-01-13 16:22:47.265,17 St & 5 Ave,3699.07,6 Ave & 21 St,3628.11,40.663493,-73.991007,40.66016,-73.990974,member,2.81515,16,0.3706231432716138,0.3706231432716138,7.899184269504939,Midday,4,4,0,1,1,Winter
F48EA368536F211F,classic_bike,2023-01-04 09:32:11.973,2023-01-04 09:48:01.574,Metropolitan Ave & Bedford Ave,5308.04,Allen St & Rivington St,5414.06,40.71534825,-73.96024116,40.72019576,-73.98997825,casual,15.826683333333332,9,2.563497763966303,2.563497763966303,9.718389039479415,Morning,0,2,0,1,1,Winter
952224350904047C,classic_bike,2023-01-12 15:59:55.317,2023-01-12 16:14:08.857,Grand St & Elizabeth St,5382.06,Avenue D & E 3 St,5436.09,40.718822,-73.99596,40.72082834,-73.97793172,member,14.225666666666664,15,1.535635921820104,1.535635921820104,6.476895422068533,Midday,0,3,0,0,1,Winter
25AD7E51D05D7929,electric_bike,2023-01-11 18:30:18.410,2023-01-11 18:37:14.048,Broadway & W 61 St,7014.12,W 82 St & Central Park West,7304.08,40.77003010255044,-73.9819684624672,40.78275,-73.97137,member,6.9273,18,1.672402175140535,1.672402175140535,14.485316141704862,Evening,1,2,0,1,1,Winter
81697EC38D7DA622,electric_bike,2023-01-11 18:33:59.249,2023-01-11 18:46:17.055,Grand St & Elizabeth St,5382.06,W 11 St & 6 Ave,5914.03,40.718822,-73.99596,40.73532427,-73.99800419,member,12.296766666666668,18,1.843036208092102,1.843036208092102,8.99278448417547,Evening,0,2,0,1,1,Winter
3C7E93869FDF7AA2,classic_bike,2023-01-02 06:25:00.206,2023-01-02 06:35:27.781,Broadway & W 25 St,6173.08,Lafayette St & Jersey St,5561.06,40.74286877312112,-73.98918628692627,40.72456089,-73.99565293,member,10.459583333333336,6,2.107399336771559,2.107399336771559,12.088814265032244,Morning,0,0,0,0,1,Winter
7367B11FB51207FE,electric_bike,2023-01-03 15:25:14.997,2023-01-03 15:28:14.315,E 20 St & FDR Dr,5886.13,E 27 St & 1 Ave,6004.06,40.733208626522426,-73.9756813647,40.739445,-73.976806,member,2.988633333333333,15,0.6998970308624312,0.6998970308624312,14.051178973135729,Midday,0,1,0,0,1,Winter
5690653D3D271952,electric_bike,2023-01-01 14:29:18.528,2023-01-01 14:45:04.033,6 Ave & 9 St,3803.09,Hanson Pl & Ashland Pl,4395.07,40.668127,-73.98377641,40.68506807308177,-73.97790759801863,member,15.758416666666667,14,1.947691307640452,1.947691307640452,7.415813462124078,Midday,4,6,1,0,1,Winter
93BCB6A086DBCDA7,classic_bike,2023-01-13 16:05:54.982,2023-01-13 16:11:33.515,Clark St & Henry St,4789.03,Court St & State St,4488.08,40.69760127,-73.99344559,40.6902375,-73.99203074,member,5.642216666666667,16,0.8274567973528715,0.8274567973528715,8.799273543407399,Midday,0,4,0,1,1,Winter
B32BF874312D24A0,classic_bike,2023-01-09 15:20:52.685,2023-01-09 15:27:22.393,Waterbury St & Stagg St,5099.02,Withers St & Kingsland Ave,5362.08,40.71019,-73.93734,40.71773,-73.94051,member,6.495133333333333,15,0.8799514472616344,0.8799514472616344,8.128714858668245,Midday,3,0,0,0,1,Winter
2405301BDEF0C8DD,classic_bike,2023-01-12 17:13:56.678,2023-01-12 17:15:16.383,College Ave & E 170 St,8175.06,Morris Ave & E 171 St,8209.01,40.837576,-73.910489,40.83899,-73.9109,member,1.3284166666666666,17,0.1609864110886936,0.1609864110886936,7.271201052873685,Evening,2,3,0,1,1,Winter
5A8FD9C02762E84F,classic_bike,2023-01-07 16:02:51.261,2023-01-07 16:27:27.908,Central Park West & W 72 St,7141.07,E 115 St & Lexington Ave,7599.09,40.77579376683666,-73.9762057363987,40.797911,-73.9423,member,24.61078333333333,16,3.767852610335882,3.767852610335882,9.18585782330454,Midday,1,5,1,1,1,Winter
F9495711BBB108B0,electric_bike,2023-01-12 23:26:10.157,2023-01-12 23:35:11.356,61 St & 39 Ave,6307.07,31 Ave & 34 St,6819.15,40.7471,-73.9028,40.763154,-73.920827,member,9.019983333333332,23,2.34356472655193,2.34356472655193,15.589151154357175,Night,3,3,0,0,1,Winter
94A629852B95BC9E,electric_bike,2023-01-07 19:28:30.523,2023-01-07 19:34:27.482,E 106 St & 1 Ave,7456.03,Madison Ave & E 120 St,7667.04,40.7892529,-73.93956237,40.80295,-73.942954,member,5.949316666666666,19,1.5495766375256972,1.5495766375256972,15.627777686211893,Evening,1,5,1,1,1,Winter
174EC8798E6F87E6,classic_bike,2023-01-13 18:01:42.098,2023-01-13 18:08:09.241,1 Ave & E 30 St,6079.03,E 33 St & 5 Ave,6322.01,40.74144387,-73.97536082,40.74765947,-73.98490707,casual,6.452383333333333,18,1.0603979848594618,1.0603979848594618,9.860523748315384,Evening,0,4,0,1,1,Winter
689A7383C632A1D7,electric_bike,2023-01-04 19:22:45.424,2023-01-04 19:37:55.863,W 37 St & 10 Ave,6611.02,W 87 St & West End Ave,7484.05,40.75660359,-73.9979009,40.789622,-73.97757,member,15.173983333333332,19,4.051024202181019,4.051024202181019,16.018302300155938,Evening,0,2,0,1,1,Winter
44D61BD8EBE4C911,electric_bike,2023-01-07 01:13:08.890,2023-01-07 01:20:22.559,Washington Ave & Park Ave,4724.03,Eastern Pkwy & Franklin Ave,3919.07,40.69610226,-73.96751037,40.6707767,-73.9576801,member,7.227816666666667,1,2.935533050039629,2.935533050039629,24.368629023846907,Night,4,5,1,0,1,Winter
F32DF97ACD0B718B,electric_bike,2023-01-06 17:27:45.235,2023-01-06 17:46:02.838,Carlton Ave & Park Ave,4732.04,Hancock St & Stuyvesant Ave,4383.06,40.69580705,-73.97355569,40.68454,-73.9322,member,18.29338333333333,17,3.705073664562246,3.705073664562246,12.152176326435049,Evening,4,4,0,1,1,Winter
04EC4412F0E6A538,electric_bike,2023-01-01 16:25:57.391,2023-01-01 16:54:01.013,W 170 St & University Ave,8254.01,Morris Ave & E 184 St,8550.04,40.84207,-73.926075,40.86008,-73.90079,casual,28.060366666666667,16,2.921189437774152,2.921189437774152,6.246225088521619,Midday,2,6,1,1,1,Winter
17C4AFF1BE9BAC69,electric_bike,2023-01-13 05:59:07.471,2023-01-13 06:03:12.505,9 Ave & W 45 St,6717.06,W 54 St & 11 Ave,6955.05,40.76019252,-73.9912551,40.768333,-73.992573,member,4.0839,5,0.9119596125384338,0.9119596125384338,13.398363513383291,Morning,0,4,0,0,1,Winter
3F96F0BB19D40A98,classic_bike,2023-01-02 14:49:15.669,2023-01-02 14:56:00.327,South St & Whitehall St,4846.01,Little West St & 1 Pl,5001.08,40.70122128,-74.01234218,40.70569254,-74.01677685,member,6.7443,14,0.6220414053635184,0.6220414053635184,5.53393003303695,Midday,0,0,0,0,1,Winter
6AF8776D995C0275,classic_bike,2023-01-04 08:10:32.852,2023-01-04 08:28:59.061,E 4 St & 2 Ave,5593.04,Spruce St & Nassau St,5137.1,40.7262807,-73.98978041,40.71146364,-74.00552427,member,18.43681666666667,8,2.1154281616884623,2.1154281616884623,6.8843603533134,Morning,0,2,0,1,1,Winter
211BA1474E298369,electric_bike,2023-01-03 16:05:01.338,2023-01-03 16:09:15.846,W 31 St & 7 Ave,6331.01,9 Ave & W 22 St,6266.06,40.749156,-73.9916,40.7454973,-74.00197139,member,4.2418000000000005,16,0.9637690176061812,0.9637690176061812,13.632453452866914,Midday,0,1,0,1,1,Winter
DEE43B42ED3CCE12,classic_bike,2023-01-13 14:32:17.511,2023-01-13 14:36:43.389,W 29 St & 9 Ave,6416.06,W 27 St & 7 Ave,6247.06,40.7500727,-73.99839279,40.746647,-73.993915,member,4.431299999999999,14,0.5360832274282983,0.5360832274282983,7.258590852728973,Midday,0,4,0,0,1,Winter
6842CDF58D9620BF,electric_bike,2023-01-09 17:14:27.595,2023-01-09 17:32:36.511,E 40 St & Park Ave,6432.11,W 82 St & Central Park West,7304.08,40.750756,-73.978326,40.78275,-73.97137,member,18.1486,17,3.6054789191845016,3.6054789191845016,11.919858013900251,Evening,0,0,0,1,1,Winter
4FD6C864431BC326,classic_bike,2023-01-10 19:55:19.597,2023-01-10 20:15:03.718,Gramercy Park N & Gramercy Park E,6013.12,North Moore St & Greenwich St,5470.12,40.73795,-73.98509,40.72019521437465,-74.0103006362915,member,19.73535,19,2.9000825226350635,2.9000825226350635,8.816917427768132,Evening,0,1,0,1,1,Winter
FE42A14E3266D9DA,classic_bike,2023-01-05 16:32:54.588,2023-01-05 16:41:18.669,9 Ave & W 18 St,6190.08,8 Ave & W 31 St,6450.05,40.74317449,-74.00366443,40.7505853470215,-73.9946848154068,member,8.40135,16,1.1186070173824831,1.1186070173824831,7.988766215304562,Midday,0,3,0,1,1,Winter
352EAA4166F75044,electric_bike,2023-01-09 14:28:04.576,2023-01-09 14:30:08.567,India St & Manhattan Ave,5826.02,India St Pier,5794.05,40.73232194,-73.9550858,40.731734785883454,-73.9612390102593,member,2.066516666666667,14,0.5225649658358583,0.5225649658358583,15.172342162004416,Midday,0,0,0,0,1,Winter
6BA83808C4CD36E3,classic_bike,2023-01-03 15:47:39.430,2023-01-03 15:54:14.015,Bedford Ave & Nassau Ave,5550.05,Kent Ave & N 7 St,5489.03,40.72311651,-73.95212324,40.72036775298455,-73.96165072917938,member,6.576416666666666,15,0.8591203787928631,0.8591203787928631,7.838192946144195,Midday,0,1,0,0,1,Winter
A291BAA8631B7925,classic_bike,2023-01-01 13:12:29.491,2023-01-01 13:46:16.176,Allen St & Stanton St,5484.09,Franklin St & Dupont St,5944.01,40.722055,-73.989111,40.73564,-73.95866,member,33.778083333333335,13,2.977557617923557,2.977557617923557,5.2890347658984025,Midday,0,6,1,0,1,Winter
79C02B589CA43331,electric_bike,2023-01-06 19:25:53.975,2023-01-06 19:29:41.306,3 St & Prospect Park West,3865.05,West Drive & Prospect Park West,3651.04,40.668132,-73.97363831,40.6610633719006,-73.97945255041122,member,3.78885,19,0.9264372687409717,0.9264372687409717,14.671004691254153,Evening,4,4,0,1,1,Winter
020568FAAA3D5BCA,electric_bike,2023-01-05 07:52:49.221,2023-01-05 08:38:52.034,Malcolm X Blvd & DeKalb Ave,4648.03,E 97 St & Madison Ave,7393.09,40.6938,-73.93114,40.787801,-73.953559,member,46.04688333333333,7,10.621716754368109,10.621716754368109,13.840307076781958,Morning,4,3,0,1,1,Winter
8D3E6FFC8CC3C15E,classic_bike,2023-01-09 15:20:27.609,2023-01-09 15:23:25.839,E 39 St & Lexington Ave,6389.09,E 41 St & Madison Ave (SW corner),6474.12,40.7494985460252,-73.97729203113158,40.752165280621966,-73.97992193698882,casual,2.9705,15,0.3701426974657569,0.3701426974657569,7.47637160341539,Midday,0,0,0,0,1,Winter
F8E43B080DA0C0EB,classic_bike,2023-01-11 19:00:42.412,2023-01-11 19:03:07.337,Bergen St & 4 Ave,4322.06,Douglass St & 3 Ave,4217.02,40.68256425759694,-73.9798977971077,40.6802133,-73.98432695,member,2.4154166666666668,19,0.4558822019149287,0.4558822019149287,11.324312071028071,Evening,4,2,0,1,1,Winter
756C93F14F90FA33,classic_bike,2023-01-02 00:44:51.349,2023-01-02 00:49:06.724,W 13 St & 5 Ave,5947.04,E 15 St & 3 Ave,5863.07,40.735445,-73.99431,40.734232,-73.986923,member,4.25625,0,0.6368504265136716,0.6368504265136716,8.97762715790198,Night,0,0,0,0,1,Winter
9B4EF833B70C2B62,classic_bike,2023-01-09 16:07:52.507,2023-01-09 16:38:37.240,E 15 St & 3 Ave,5863.07,Hanson Pl & Ashland Pl,4395.07,40.734232,-73.986923,40.68506807308177,-73.97790759801863,member,30.74555,16,5.519340077844354,5.519340077844354,10.771002784814751,Midday,0,0,0,1,1,Winter
0B46C0131B097168,classic_bike,2023-01-11 19:51:25.658,2023-01-11 19:59:44.715,E 9 St & Avenue C,5616.01,E 5 St & Cooper Sq,5712.12,40.72521311,-73.97768752,40.72769,-73.990993,member,8.317616666666668,19,1.1545472581336067,1.1545472581336067,8.32844771094481,Evening,0,2,0,1,1,Winter
BD128CB250BE663D,classic_bike,2023-01-06 13:52:38.851,2023-01-06 13:58:26.537,E 11 St & 1 Ave,5746.14,University Pl & E 14 St,5905.14,40.72953837,-73.98426726,40.734814,-73.992085,member,5.794766666666666,13,0.8820669739279606,0.8820669739279606,9.13307152471097,Midday,0,4,0,0,1,Winter
F7013EB53AAE6D18,electric_bike,2023-01-11 16:27:26.878,2023-01-11 16:31:36.284,4 Ave & 9 St,3955.05,Carroll St & 5 Ave,4060.09,40.6705135,-73.98876585,40.6751622,-73.9814832,member,4.156766666666667,16,0.8027566627489577,0.8027566627489577,11.587227195401264,Midday,4,2,0,1,1,Winter
45536E8FBFE8FEFA,electric_bike,2023-01-02 19:40:20.133,2023-01-02 19:44:12.894,11 Ave & W 41 St,6726.01,W 30 St & 8 Ave,6373.07,40.76030096,-73.99884222,40.74965268472847,-73.9952078461647,member,3.87935,19,1.2229680432595391,1.2229680432595391,18.91504571528023,Evening,0,0,0,1,1,Winter
DD8AE6B40261A3E8,electric_bike,2023-01-01 04:03:32.356,2023-01-01 04:23:22.188,E 4 St & 2 Ave,5593.04,Warren St & Court St,4413.08,40.7262807,-73.98978041,40.686371,-73.99383324,casual,19.83053333333333,4,4.4508860535494,4.4508860535494,13.466766562655772,Night,0,6,1,0,1,Winter
55665E8CB463C228,classic_bike,2023-01-01 00:08:50.677,2023-01-01 00:18:55.129,W 36 St & 7 Ave,6483.06,2 Ave & E 29 St,6122.09,40.752149,-73.989539,40.74172351097472,-73.97809267044067,member,10.0742,0,1.5078698733639386,1.5078698733639386,8.980583312008529,Night,0,6,1,0,1,Winter
A50C2B1306728A8C,electric_bike,2023-01-05 17:46:12.526,2023-01-05 17:48:54.731,W 15 St & 6 Ave,5989.02,W 25 St & 6 Ave,6215.04,40.738046142482766,-73.99642959237099,40.74395411,-73.99144871,member,2.703416666666667,17,0.7795235821743763,0.7795235821743763,17.300853215546713,Evening,0,3,0,1,1,Winter
9E567DDE0585244F,classic_bike,2023-01-01 19:37:49.089,2023-01-01 19:47:25.946,E 80 St & 2 Ave,7121.02,E 89 St & 3 Ave,7265.1,40.77391390238118,-73.9543953537941,40.7806284,-73.9521667,member,9.614283333333333,19,0.7698405178346338,0.7698405178346338,4.804355090091101,Evening,1,6,1,1,1,Winter
9C7157B28984B604,classic_bike,2023-01-01 14:48:02.113,2023-01-01 14:56:15.145,Rutgers St & Henry St,5230.02,Pike St & E Broadway,5270.05,40.71332151208186,-73.99009689688683,40.71406667,-73.99293911,member,8.2172,14,0.2534762748462336,0.2534762748462336,1.85082223759602,Midday,0,6,1,0,1,Winter
76E394906F06E06B,classic_bike,2023-01-07 15:16:49.204,2023-01-07 15:28:49.376,W 25 St & 6 Ave,6215.04,9 Ave & W 22 St,6266.06,40.74395411,-73.99144871,40.7454973,-74.00197139,member,12.002866666666668,15,0.9029284414133278,0.9029284414133278,4.513563966785685,Midday,0,5,1,0,1,Winter
949F0F7AC44F5969,classic_bike,2023-01-11 08:06:24.932,2023-01-11 08:12:32.835,E 118 St & 1 Ave,7596.1,Park Ave & E 124 St,7682.01,40.79747,-73.93504,40.8045555,-73.9396861,member,6.131716666666667,8,0.8795915628969725,0.8795915628969725,8.606968756517619,Morning,1,2,0,1,1,Winter
5146F130CF280B33,electric_bike,2023-01-01 18:05:05.097,2023-01-01 18:22:41.341,Broadway & W 25 St,6173.08,W 42 St & Dyer Ave,6644.07,40.74286877312112,-73.98918628692627,40.75898481399634,-73.99379968643188,member,17.604066666666665,18,1.8336751683200616,1.8336751683200616,6.2497212821585,Evening,0,6,1,1,1,Winter
3F2C554470E2967C,classic_bike,2023-01-09 17:20:50.147,2023-01-09 17:27:43.570,Bleecker St & Crosby St,5679.08,Rivington St & Ridge St,5406.02,40.72615604980408,-73.99510189890862,40.71850211,-73.98329859,member,6.890383333333333,17,1.3091031534001512,1.3091031534001512,11.399393241886749,Evening,0,0,0,1,1,Winter
D0E8F54DFB1BA0D9,classic_bike,2023-01-14 14:09:25.916,2023-01-14 14:15:15.875,E 1 St & 1 Ave,5593.01,Allen St & Hester St,5342.1,40.72335597960796,-73.98864984512329,40.71605866,-73.99190759,member,5.83265,14,0.8566139657843803,0.8566139657843803,8.811918758551057,Midday,0,5,1,0,1,Winter
D33854846268E477,classic_bike,2023-01-11 14:25:07.940,2023-01-11 14:27:51.811,E 138 St & Cypress Ave,7669.1,Willow Ave & E 133 St,7626.02,40.805559,-73.914718,40.800933,-73.913863,member,2.731183333333333,14,0.5193974739156545,0.5193974739156545,11.410383204449577,Midday,2,2,0,0,1,Winter
CB57844A4F742515,electric_bike,2023-01-14 09:38:15.690,2023-01-14 09:40:29.230,Henry St & Degraw St,4380.08,Congress St & Clinton St,4455.1,40.6847514,-73.99917254,40.68825516598005,-73.99545192718506,member,2.2256666666666667,9,0.5002052312653573,0.5002052312653573,13.484640052083918,Morning,4,5,1,1,1,Winter
8AF0DF79198E6EA9,electric_bike,2023-01-08 10:20:22.885,2023-01-08 10:56:51.880,Madison St & Montgomery St,5262.09,Van Brunt St & Van Dyke St,4095.1,40.713126,-73.984844,40.6758329439129,-74.01472628116608,member,36.48325,10,4.852096406845101,4.852096406845101,7.979710810048613,Morning,0,6,1,0,1,Winter
9F8259BFD2CAB56B,classic_bike,2023-01-03 20:02:29.991,2023-01-03 20:09:35.980,E 40 St & Park Ave,6432.11,8 Ave & W 38 St,6526.05,40.750756,-73.978326,40.75461,-73.99177,member,7.099816666666666,20,1.2108159159010514,1.2108159159010514,10.232511396406446,Evening,0,1,0,0,1,Winter
2C0A34F2B4CA3C33,electric_bike,2023-01-02 14:22:05.774,2023-01-02 14:30:53.607,2 Ave & E 72 St,6925.09,E 44 St & Lexington Ave,6464.09,40.7687620293096,-73.95840793848038,40.752643,-73.974996,member,8.797216666666666,14,2.2725426434691247,2.2725426434691247,15.49951124027647,Midday,1,0,0,0,1,Winter
A2C9574A87770CD2,classic_bike,2023-01-13 16:27:06.362,2023-01-13 16:43:50.395,Union St & Bedford Ave,3879.04,Douglass St & 3 Ave,4217.02,40.6691783,-73.9554162,40.6802133,-73.98432695,member,16.733883333333335,16,2.729478932595263,2.729478932595263,9.786654579424129,Midday,4,4,0,1,1,Winter
A8F96C692C6B614D,electric_bike,2023-01-04 14:15:34.593,2023-01-04 14:25:11.523,18 St & 27 Ave,7062.07,34 Ave & 48 St,6554.05,40.772768286288304,-73.92743647098541,40.75388,-73.914952,member,9.6155,14,2.348771284534938,2.348771284534938,14.656156941614713,Midday,1,2,0,0,1,Winter
4ECDBFD0227232CC,classic_bike,2023-01-05 09:11:56.609,2023-01-05 09:15:34.162,Lenox Ave & W 144 St,7910.01,W 135 St & Lenox Terrace Pl,7832.04,40.819783,-73.936521,40.813619,-73.939336,member,3.625883333333333,9,0.7251880505837076,0.7251880505837076,12.000188377550977,Morning,2,3,0,1,1,Winter
F371266106EA186B,classic_bike,2023-01-06 18:24:08.468,2023-01-06 18:26:28.201,Murray St & West St,5329.08,West St & Chambers St,5329.03,40.71503,-74.01246,40.71754834,-74.01322069,member,2.328883333333333,18,0.287271885004655,0.287271885004655,7.401106295697925,Evening,0,4,0,1,1,Winter
18BE1C447A8E3FDD,classic_bike,2023-01-14 15:22:19.827,2023-01-14 15:39:48.477,1 Ave & E 62 St,6753.08,2 Ave & E 31 St,6197.02,40.7612274,-73.96094022,40.74290902,-73.97706058,member,17.477500000000003,15,2.4480367763360364,2.4480367763360364,8.404074185676565,Midday,1,5,1,0,1,Winter
1991DB873B5016AC,classic_bike,2023-01-10 13:01:49.922,2023-01-10 13:13:33.186,Broadway & W 58 St,6948.1,Amsterdam Ave & W 73 St,7260.09,40.76695317,-73.98169333,40.77966809007312,-73.98093044757842,member,11.721066666666667,13,1.415293310715506,1.415293310715506,7.244869520657707,Midday,1,1,0,0,1,Winter
F0A5C470C4B25CFA,electric_bike,2023-01-02 19:13:26.118,2023-01-02 19:20:39.418,Adelphi St & Myrtle Ave,4620.02,Kent Ave & Division Ave,5021.05,40.69308257,-73.97178913,40.706563674670925,-73.9683187007904,member,7.221666666666667,19,1.5273126196502746,1.5273126196502746,12.689419410895429,Evening,4,0,0,1,1,Winter
411A8AB2E5224B9C,electric_bike,2023-01-10 20:30:51.204,2023-01-10 20:39:18.677,9 Ave & W 18 St,6190.08,1 Ave & E 18 St,5854.09,40.74317449,-74.00366443,40.73381219196632,-73.98054420948029,member,8.457883333333333,20,2.208658336164233,2.208658336164233,15.668163646521569,Evening,0,1,0,0,1,Winter
789643214F194E80,electric_bike,2023-01-03 16:46:55.141,2023-01-03 16:59:40.277,5 Ave & 37 St,3379.03,Van Brunt St & Van Dyke St,4095.1,40.652657,-74.002356,40.6758329439129,-74.01472628116608,member,12.752266666666666,16,2.7802555360289887,2.7802555360289887,13.08122991168153,Midday,4,1,0,1,1,Winter
D2A23A80CB453E27,electric_bike,2023-01-09 23:00:48.212,2023-01-09 23:16:18.428,Franklin St & W Broadway,5430.08,E 6 St & Avenue B,5584.04,40.71911552,-74.00666661,40.72453734,-73.98185424,member,15.5036,23,2.176190310504662,2.176190310504662,8.4220064133672,Night,0,0,0,0,1,Winter
7DCE218C52570610,electric_bike,2023-01-09 19:59:25.249,2023-01-09 20:08:16.127,W 107 St & Columbus Ave,7619.05,Lexington Ave & E 111 St,7567.06,40.7997568,-73.9621128676,40.7954121,-73.9441232,casual,8.847966666666668,19,1.5895129992164796,1.5895129992164796,10.778835810071854,Evening,1,0,0,1,1,Winter
1659BB4960B082BD,classic_bike,2023-01-06 17:59:14.968,2023-01-06 18:06:25.444,Audobon Ave & W 179 St,8316.02,Broadway & W 168 St,8226.06,40.847305,-73.933291,40.84089603193041,-73.93972098827362,member,7.1746,17,0.8946572990178167,0.8946572990178167,7.481871873145402,Evening,2,4,0,1,1,Winter
DD9D2F2FFF4EB1AD,classic_bike,2023-01-11 15:04:40.834,2023-01-11 15:12:04.681,W 24 St & 7 Ave,6257.03,8 Ave & W 38 St,6526.05,40.74487634,-73.99529885,40.75461,-73.99177,member,7.39745,15,1.122412971815616,1.122412971815616,9.103782831778108,Midday,0,2,0,0,1,Winter
155A938E0BF3A79D,electric_bike,2023-01-14 15:41:58.900,2023-01-14 15:50:49.783,Leonard St & Maujer St,5148.03,S 4 St & Wythe Ave,5204.05,40.7103685423523,-73.94705951213837,40.71285887,-73.96590294,member,8.84805,15,1.6121963181550774,1.6121963181550774,10.9325533975627,Midday,4,5,1,0,1,Winter
64737584B7AE92F5,classic_bike,2023-01-09 14:35:56.809,2023-01-09 14:39:41.179,Clinton St & Grand St,5303.06,Rutgers St & Henry St,5230.02,40.71559509,-73.9870295,40.71332151208186,-73.99009689688683,member,3.7395,14,0.3615930790118513,0.3615930790118513,5.801734119724851,Midday,0,0,0,0,1,Winter
272C21339A50224C,electric_bike,2023-01-04 15:14:04.656,2023-01-04 15:19:44.600,E 67 St & Park Ave,6932.14,E 53 St & Madison Ave,6659.03,40.76780080148132,-73.96592080593109,40.7597108,-73.97402311,member,5.665733333333334,15,1.129095907859969,1.129095907859969,11.957102547172145,Midday,1,2,0,0,1,Winter
D0E328347DCBB625,electric_bike,2023-01-05 15:12:39.763,2023-01-05 15:30:29.242,Duffield St & Willoughby St,4596.05,Franklin Ave & Myrtle Ave,4715.01,40.69221589,-73.9842844,40.694546087246025,-73.95801365375519,casual,17.824650000000002,15,2.229966411165969,2.229966411165969,7.506345688131779,Midday,4,3,0,0,1,Winter
0496148AFEFE00DB,electric_bike,2023-01-09 17:11:00.659,2023-01-09 17:16:14.164,E 16 St & 5 Ave,6022.04,Hudson St & W 13 St,6115.06,40.73726186,-73.99238967,40.74005708567285,-74.0052741765976,member,5.225083333333333,17,1.1291624206921411,1.1291624206921411,12.966251621159817,Evening,0,0,0,1,1,Winter
67C0E6C40E117514,classic_bike,2023-01-08 14:33:10.138,2023-01-08 14:46:36.741,W 64 St & Thelonious Monk Circle,7123.04,W 89 St & Columbus Ave,7432.09,40.77515953434235,-73.98918695747852,40.7882213,-73.97041561,member,13.443383333333331,14,2.1464941831654816,2.1464941831654816,9.580151647583428,Midday,1,6,1,0,1,Winter
C03705FEF391AD71,electric_bike,2023-01-04 13:45:16.053,2023-01-04 13:50:42.776,W 27 St & 7 Ave,6247.06,11 Ave & W 27 St,6425.04,40.746647,-73.993915,40.751396,-74.005226,member,5.445383333333334,13,1.0893686759415242,1.0893686759415242,12.003217506540668,Midday,0,2,0,0,1,Winter
19F72E55EDE6D717,electric_bike,2023-01-13 16:11:20.030,2023-01-13 16:19:28.138,Court St & State St,4488.08,Carroll St & Columbia St,4348.07,40.6902375,-73.99203074,40.6830456,-74.00348559,casual,8.135133333333334,16,1.253946529910349,1.253946529910349,9.248378448370556,Midday,4,4,0,1,1,Winter
39CD1C8C2E11F981,electric_bike,2023-01-04 08:02:40.235,2023-01-04 08:15:25.390,Crotona Park North & Prospect Ave,8236.01,E 149 St & Eagle Ave,7793.02,40.841092,-73.892317,40.814046,-73.91186,member,12.752583333333332,8,3.427556105984588,3.427556105984588,16.12640835065381,Morning,2,2,0,1,1,Winter
D3F54204158B9D2F,electric_bike,2023-01-06 07:56:40.584,2023-01-06 08:01:02.832,2 Ave & E 96 St,7338.02,E 97 St & Madison Ave,7393.09,40.7839636,-73.9471673,40.787801,-73.953559,member,4.3708,7,0.6867719206173283,0.6867719206173283,9.427636871291227,Morning,1,4,0,1,1,Winter
AB9992FF3742F020,classic_bike,2023-01-12 13:47:31.721,2023-01-12 13:53:25.048,E 89 St & 3 Ave,7265.1,5 Ave & E 87 St,7323.09,40.7806284,-73.9521667,40.78232260730881,-73.95987510681152,member,5.8887833333333335,13,0.6758164115787899,0.6758164115787899,6.885800070992716,Midday,1,3,0,0,1,Winter
3C16C16AE5E5B772,classic_bike,2023-01-11 13:55:12.681,2023-01-11 13:58:23.759,8 Ave & W 49 St,6747.07,W 47 St & 10 Ave,6824.07,40.76171227910671,-73.98655101656914,40.76269882,-73.99301222,member,3.184633333333333,13,0.555121700494409,0.555121700494409,10.458755700707943,Midday,0,2,0,0,1,Winter
2AAF40E0021A0C2F,electric_bike,2023-01-06 08:09:04.840,2023-01-06 08:18:34.480,W 104 St & Amsterdam Ave,7610.13,Riverside Dr & W 72 St,7288.04,40.79904139288298,-73.96649479866028,40.78057799010334,-73.98562431335449,member,9.494,8,2.6093151212966195,2.6093151212966195,16.49029990286467,Morning,1,4,0,1,1,Winter
3D402FE4FDC01C01,classic_bike,2023-01-05 11:47:42.952,2023-01-05 11:55:01.906,Broadway & E 19 St,6098.12,W 17 St & 8 Ave,6148.02,40.73866091428551,-73.98987293243407,40.74177603,-74.00149746,member,7.3159,11,1.038814748590769,1.038814748590769,8.519646921834106,Morning,0,3,0,0,1,Winter
C7C898ACCF2092ED,classic_bike,2023-01-07 09:05:44.043,2023-01-07 09:09:08.960,E 14 St & 1 Ave,5779.1,E 7 St & Avenue A,5626.07,40.73139303364151,-73.98286700248718,40.72621788,-73.98379855,member,3.415283333333333,9,0.5807799064848674,0.5807799064848674,10.203192821217971,Morning,0,5,1,1,1,Winter
A70996A535B5B43D,classic_bike,2023-01-05 11:03:27.095,2023-01-05 11:21:54.439,5 Ave & E 78 St,7161.08,W 116 St & Broadway,7713.11,40.77632142182271,-73.96427392959595,40.8082,-73.9641,member,18.45573333333333,11,3.544766402421903,3.544766402421903,11.524114501653372,Morning,1,3,0,0,1,Winter
CDF0BD030F490C75,electric_bike,2023-01-12 16:58:04.605,2023-01-12 17:06:35.069,Rockaway Ave & Bainbridge St,4285.09,Halsey St & Broadway,4366.01,40.68319988172761,-73.91166642308235,40.68565,-73.91564,casual,8.507733333333332,16,0.4318389251911669,0.4318389251911669,3.0455039546142357,Midday,3,3,0,1,1,Winter
B0548261430886B0,electric_bike,2023-01-02 18:09:06.310,2023-01-02 18:14:09.512,Madison Ave & E 82 St,7188.13,Central Park West & W 68 St,7079.06,40.7781314,-73.96069399,40.7734066,-73.97782542,member,5.053366666666666,18,1.5352396225050031,1.5352396225050031,18.22831855006897,Evening,1,0,0,1,1,Winter
AB1C92384349C8E9,classic_bike,2023-01-11 15:28:31.939,2023-01-11 15:50:34.102,Tompkins Ave & Hopkins St,4850.04,St Johns Pl & Washington Ave,4001.09,40.69957608,-73.94708417,40.6737236,-73.9631611,casual,22.03605,15,3.178248087989457,3.178248087989457,8.653768950395712,Midday,4,2,0,0,1,Winter
A3D205920067246D,classic_bike,2023-01-03 18:44:01.517,2023-01-03 18:51:13.231,E 40 St & Park Ave,6432.11,E 33 St & 5 Ave,6322.01,40.750756,-73.978326,40.74765947,-73.98490707,member,7.195233333333333,18,0.6526032038005214,0.6526032038005214,5.441962812607136,Evening,0,1,0,1,1,Winter
5EEEF90B26508BA3,electric_bike,2023-01-13 14:39:23.727,2023-01-13 14:50:34.021,W 59 St & 10 Ave,7023.04,W 84 St & Broadway,7409.08,40.770513,-73.988038,40.7867947,-73.977112,member,11.171566666666669,14,2.0307798252055687,2.0307798252055687,10.906866793884545,Midday,1,4,0,0,1,Winter
6A8C3D01B040F3AB,classic_bike,2023-01-05 22:49:28.956,2023-01-05 23:05:18.218,Bank St & Hudson St,5922.08,Allen St & Rivington St,5414.06,40.73652889,-74.00618026,40.72019576,-73.98997825,member,15.821033333333332,22,2.272085692757168,2.272085692757168,8.616702758485859,Night,0,3,0,0,1,Winter
684994397E35B7DC,electric_bike,2023-01-13 12:29:39.252,2023-01-13 12:34:16.576,Prospect Pl & Howard Ave,3991.04,Bergen St & Mother Gaston Blvd,4055.04,40.67261,-73.91977,40.67374,-73.90852,casual,4.622066666666667,12,0.9570487169283268,0.9570487169283268,12.423646640543106,Midday,4,4,0,0,1,Winter
F22276C279151F01,classic_bike,2023-01-03 21:54:22.587,2023-01-03 22:30:48.548,Forsyth St & Grand St,5382.07,E 1 St & 1 Ave,5593.01,40.71779817737835,-73.99316132068634,40.72335597960796,-73.98864984512329,member,36.43268333333333,21,0.7255877586532421,0.7255877586532421,1.1949508390825234,Night,0,1,0,0,1,Winter
922172CD1FC4D1EA,classic_bike,2023-01-13 13:33:40.650,2023-01-13 13:51:37.316,Howard St & Lafayette St,5422.04,Howard St & Lafayette St,5422.04,40.71910537,-73.99973337,40.71910537,-73.99973337,member,17.944433333333333,13,0.0,0.0,0.0,Midday,0,4,0,0,1,Winter
3D80A2DD39DFF4F9,electric_bike,2023-01-13 17:35:23.108,2023-01-13 17:49:55.880,N 6 St & Bedford Ave,5379.1,E 3 St & 1 Ave,5553.03,40.71745169,-73.95850939,40.72467721,-73.98783413,member,14.5462,17,2.598636250060316,2.598636250060316,10.718825191707728,Evening,0,4,0,1,1,Winter
D851C357FC91E9A3,classic_bike,2023-01-10 11:35:30.316,2023-01-10 11:40:36.965,1 Ave & E 6 St,5626.15,Great Jones St,5636.11,40.72633085971696,-73.98616880178452,40.72743423,-73.99379025,member,5.110816666666667,11,0.6538479509395608,0.6538479509395608,7.6760485877417475,Morning,0,1,0,0,1,Winter
C7A1AF54E2A79A93,classic_bike,2023-01-05 10:49:28.686,2023-01-05 11:03:00.773,University Pl & E 14 St,5905.14,Walker St & Baxter St,5351.07,40.734814,-73.992085,40.717411,-73.999573,member,13.534783333333332,10,2.0354031497407674,2.0354031497407674,9.022988102342191,Morning,0,3,0,0,1,Winter
BAD929903A04B5C6,classic_bike,2023-01-03 18:10:41.967,2023-01-03 18:15:40.639,W 21 St & 6 Ave,6140.05,W 15 St & 7 Ave,6030.06,40.74173969,-73.99415556,40.73935542,-73.99931783,member,4.977866666666667,18,0.509354042591038,0.509354042591038,6.139425702200865,Evening,0,1,0,1,1,Winter
D2276599184E4636,classic_bike,2023-01-10 08:11:00.694,2023-01-10 08:23:52.528,W 104 St & Amsterdam Ave,7610.13,Riverside Dr & W 72 St,7288.04,40.79904139288298,-73.96649479866028,40.78057799010334,-73.98562431335449,member,12.8639,8,2.6093151212966195,2.6093151212966195,12.170407674017769,Morning,1,1,0,1,1,Winter
0C47D35835A09184,electric_bike,2023-01-11 10:37:54.330,2023-01-11 10:44:33.288,Broadway & E 19 St,6098.12,E 25 St & 1 Ave,6004.07,40.73866091428551,-73.98987293243407,40.7381765,-73.97738662,member,6.6493,10,1.053375532034082,1.053375532034082,9.50514067977756,Morning,0,2,0,0,1,Winter
3EF4B509596C94E7,electric_bike,2023-01-04 19:32:40.308,2023-01-04 19:59:09.493,Cliff St & Fulton St,5065.14,Catherine St & Monroe St,5128.04,40.70838,-74.00495,40.71117444,-73.99682619,member,26.486416666666667,19,0.7519465356314993,0.7519465356314993,1.7033935811585168,Evening,0,2,0,1,1,Winter
ECEFEA95F5ADC41B,classic_bike,2023-01-14 11:45:31.640,2023-01-14 11:50:38.502,W 21 St & 6 Ave,6140.05,Gramercy Park N & Gramercy Park E,6013.12,40.74173969,-73.99415556,40.73795,-73.98509,member,5.114366666666667,11,0.8723109649824607,0.8723109649824607,10.23365380508782,Morning,0,5,1,0,1,Winter
EA48469BF311C497,electric_bike,2023-01-02 22:36:23.463,2023-01-02 22:48:09.117,White St & Moore St,4987.06,Bushwick Ave & Furman Ave,4317.05,40.704508,-73.9351,40.68281,-73.90623,member,11.7609,22,3.42716755331846,3.42716755331846,17.48421066407397,Night,4,0,0,0,1,Winter
E0D54D271B43DBA1,classic_bike,2023-01-06 17:40:20.744,2023-01-06 17:49:12.421,W 42 St & 6 Ave,6517.08,W 15 St & 7 Ave,6030.06,40.75492,-73.98455,40.73935542,-73.99931783,member,8.861283333333335,17,2.131433341064189,2.131433341064189,14.431995417953152,Evening,0,4,0,1,1,Winter
1662F990B04FB4C1,classic_bike,2023-01-10 18:53:26.220,2023-01-10 19:00:47.861,6 Ave & W 45 St,6593.15,W 42 St & 8 Ave,6602.05,40.756951,-73.982631,40.7575699,-73.99098507,member,7.360683333333333,18,0.7070054518561172,0.7070054518561172,5.763096330915884,Evening,0,1,0,1,1,Winter
07722DA869CCCFFF,electric_bike,2023-01-04 21:30:27.103,2023-01-04 21:39:15.989,Greene Ave & Throop Ave,4510.04,Powers St & Olive St,5210.01,40.6894932,-73.942061,40.71323,-73.93894,member,8.814766666666666,21,2.652492106813646,2.652492106813646,18.054876825117564,Night,4,2,0,0,1,Winter
60D1FA26A13B92D7,classic_bike,2023-01-10 17:57:28.447,2023-01-10 18:07:14.788,W 70 St & Amsterdam Ave,7207.08,E 81 St & 3 Ave,7154.07,40.77748046,-73.98288594,40.77573034,-73.9567526,member,9.77235,17,2.2091113322051457,2.2091113322051457,13.563439697954816,Evening,1,1,0,1,1,Winter
A8090675578C2E3D,classic_bike,2023-01-01 12:15:58.585,2023-01-01 12:19:53.483,3 Ave & E 72 St,7028.04,E 85 St & 3 Ave,7212.05,40.7699426,-73.96060712,40.77801203,-73.95407149,member,3.9149666666666665,12,1.0526116638733896,1.0526116638733896,16.132116876023645,Midday,1,6,1,0,1,Winter
30898D6A119E7A86,electric_bike,2023-01-07 15:23:41.201,2023-01-07 15:33:23.502,Montrose Ave & Bushwick Ave,5068.02,Kosciuszko St & Tompkins Ave,4553.04,40.70767788,-73.94016171,40.69128258,-73.9452416,member,9.705016666666667,15,1.8726960026406072,1.8726960026406072,11.577698835320884,Midday,4,5,1,0,1,Winter
BF0A7431734F1B94,electric_bike,2023-01-14 17:11:09.582,2023-01-14 17:20:28.704,E 1 St & 1 Ave,5593.01,Perry St & Greenwich Ave,5955.12,40.72335597960796,-73.98864984512329,40.735918,-74.000939,member,9.3187,17,1.738807212087019,1.738807212087019,11.19559946400476,Evening,0,5,1,1,1,Winter
4268DF9FD045A60F,classic_bike,2023-01-04 19:12:46.385,2023-01-04 19:25:16.622,Nevins St & Schermerhorn St,4437.09,Willoughby Ave & Hall St,4611.03,40.68737247650719,-73.98176059126854,40.69196035,-73.96536851,member,12.50395,19,1.4732247675371086,1.4732247675371086,7.06924500275725,Evening,4,2,0,1,1,Winter
5788AEA71B6318EF,electric_bike,2023-01-12 14:39:35.217,2023-01-12 14:42:58.867,Jay St & York St,4895.09,Clark St & Henry St,4789.03,40.70140317257725,-73.98672670125961,40.69760127,-73.99344559,member,3.3941666666666666,14,0.7067822423985024,0.7067822423985024,12.49406370063643,Midday,0,3,0,0,1,Winter
4C444A4246F8A4B4,classic_bike,2023-01-04 18:06:57.718,2023-01-04 18:09:04.707,5 St & 51 Ave,6137.04,Vernon Blvd & 50 Ave,6170.02,40.7423737,-73.9566,40.74232744,-73.95411749,member,2.116483333333333,18,0.2092074471243394,0.2092074471243394,5.930803531389507,Evening,1,2,0,1,1,Winter
F1D4BC41DEF3707D,classic_bike,2023-01-09 19:44:36.551,2023-01-09 19:46:50.601,2 Ave & E 72 St,6925.09,E 74 St & 1 Ave,6953.08,40.7687620293096,-73.95840793848038,40.7689738,-73.95482273,member,2.234166666666667,19,0.3028397571931575,0.3028397571931575,8.132958790715158,Evening,1,0,0,1,1,Winter
2857E24E6CCF45CB,classic_bike,2023-01-11 11:54:01.316,2023-01-11 12:04:03.765,W 22 St & 8 Ave,6224.03,W 42 St & 8 Ave,6602.05,40.74475148,-73.99915362,40.7575699,-73.99098507,casual,10.040816666666666,11,1.5827396387210866,1.5827396387210866,9.45783410611672,Morning,0,2,0,0,1,Winter
10081C7714EEAB1E,classic_bike,2023-01-13 08:55:12.390,2023-01-13 08:59:05.677,Union St & Bedford Ave,3879.04,Sterling Pl & New York Ave,3984.02,40.6691783,-73.9554162,40.67234,-73.94763,member,3.888116666666667,8,0.7448580804076231,0.7448580804076231,11.4943785528874,Morning,4,4,0,1,1,Winter
7B14B92E641EDAD9,classic_bike,2023-01-09 17:08:20.197,2023-01-09 17:12:44.882,Spring St & Hudson St,5653.12,Thompson St & Bleecker St,5721.07,40.72583996792375,-74.0076532959938,40.72840059450829,-73.99968780577183,member,4.411416666666667,17,0.729116292289887,0.729116292289887,9.91676389762772,Evening,0,0,0,1,1,Winter
74CDB1D3CC2F6AC8,electric_bike,2023-01-07 09:41:17.927,2023-01-07 09:48:39.599,Riverside Dr & W 82 St,7388.1,Riverside Dr & W 104 St,7623.13,40.78720869,-73.98128127,40.8013434,-73.9711457439,member,7.3612,9,1.788366007375962,1.788366007375962,14.576694077400116,Morning,1,5,1,1,1,Winter
101013E3B5D11733,electric_bike,2023-01-02 09:23:50.568,2023-01-02 09:25:58.647,W 53 St & 10 Ave,6890.01,W 59 St & 10 Ave,7023.04,40.76669671,-73.99061728,40.770513,-73.988038,member,2.13465,9,0.4767130262253415,0.4767130262253415,13.399283991998916,Morning,0,0,0,1,1,Winter
3C29758BD2CFA72E,classic_bike,2023-01-13 13:11:29.932,2023-01-13 13:15:38.721,E 1 St & Bowery,5636.13,LaGuardia Pl & W 3 St,5721.14,40.72486122254819,-73.99213135242462,40.72917025,-73.99810231,member,4.146483333333333,13,0.6947939518387184,0.6947939518387184,10.053733190050147,Midday,0,4,0,0,1,Winter
D6E6A54648376606,electric_bike,2023-01-08 14:18:12.400,2023-01-08 14:24:02.725,Congress St & Hicks St,4497.09,Pierrepont St & Monroe Pl,4718.08,40.6893952,-73.9995126,40.69535693320225,-73.99344027042389,member,5.83875,14,0.8375910869796076,0.8375910869796076,8.607230180907978,Midday,4,6,1,0,1,Winter
8ECA9DEB027B1F4F,electric_bike,2023-01-06 00:18:06.020,2023-01-06 00:29:12.227,Prospect Park SW & 10 Ave,3611.02,Parade Pl & Crooke Ave,3376.02,40.659945,-73.977504,40.651847,-73.965248,casual,11.10345,0,1.3710271353050156,1.3710271353050156,7.408654798130395,Night,4,4,0,0,1,Winter
493620CDB0812441,electric_bike,2023-01-07 16:38:56.864,2023-01-07 17:05:52.257,E Fordham Rd & Webster Ave,8582.09,E Fordham Rd & Webster Ave,8582.09,40.861748,-73.89105,40.861748,-73.89105,casual,26.92321666666667,16,0.0,0.0,0.0,Midday,2,5,1,1,1,Winter
EB2F46A160212E16,classic_bike,2023-01-02 09:27:18.060,2023-01-02 09:29:37.387,Church Ave & Story St,3007.05,E 3 St & Church Ave,3046.03,40.642031,-73.981073,40.643817,-73.977433,member,2.3221166666666666,9,0.3657330474722234,0.3657330474722234,9.449991537175164,Morning,4,0,0,1,1,Winter
8FC582EA73288708,electric_bike,2023-01-03 06:03:02.890,2023-01-03 06:14:18.038,E 4 St & 2 Ave,5593.04,Watts St & Greenwich St,5578.02,40.7262807,-73.98978041,40.72405549,-74.00965965,member,11.252466666666669,6,1.6933749778162557,1.6933749778162557,9.02935344567194,Morning,0,1,0,0,1,Winter
32C6BD60B8AF8A63,classic_bike,2023-01-14 14:27:20.728,2023-01-14 14:45:55.901,Columbus Ave & W 103 St,7595.17,W 35 St & 9 Ave,6569.09,40.7969347,-73.9643412291,40.75414519263519,-73.9960889518261,member,18.586216666666665,14,5.457560155379575,5.457560155379575,17.6180884574559,Midday,1,5,1,0,1,Winter
7D583E3633AD79A1,classic_bike,2023-01-12 21:01:12.601,2023-01-12 21:05:57.267,W Burnside Ave & University Ave,8425.01,W Tremont Ave & Montgomery Ave,8407.03,40.853686,-73.912498,40.851788,-73.916418,casual,4.744433333333333,21,0.3914629228220186,0.3914629228220186,4.950596566359407,Night,2,3,0,0,1,Winter
8C39CC571A238E6A,classic_bike,2023-01-01 15:53:11.624,2023-01-01 16:12:49.106,W 42 St & 8 Ave,6602.05,8 Ave & W 52 St,6816.07,40.7575699,-73.99098507,40.76370739,-73.9851615,member,19.6247,15,0.8404302110435578,0.8404302110435578,2.5695074402469062,Midday,0,6,1,0,1,Winter
BE1159F0129871C5,classic_bike,2023-01-13 21:05:57.985,2023-01-13 21:14:37.208,Walker St & Baxter St,5351.07,Water St & Gouverneur Ln,4993.15,40.717411,-73.999573,40.70469667894968,-74.00803416967392,member,8.653716666666666,21,1.583459171202123,1.583459171202123,10.978814529263234,Night,0,4,0,0,1,Winter
A0AF3BC246CEE028,classic_bike,2023-01-05 09:29:46.354,2023-01-05 09:34:58.569,E 14 St & 1 Ave,5779.1,Broadway & E 19 St,6098.12,40.73139303364151,-73.98286700248718,40.73866091428551,-73.98987293243407,member,5.203583333333333,9,1.0007776301274118,1.0007776301274118,11.539482306931706,Morning,0,3,0,1,1,Winter
9706355F7B84B10E,electric_bike,2023-01-14 14:55:36.523,2023-01-14 14:59:02.516,Crotona Park East & E 173 St,8182.02,Westchester Ave & Southern Blvd,8004.03,40.837037,-73.890413,40.824956,-73.891677,member,3.4332166666666666,14,1.3475487951026384,1.3475487951026384,23.55019666867077,Midday,2,5,1,0,1,Winter
20E956C55B22938D,electric_bike,2023-01-11 17:42:40.412,2023-01-11 17:57:22.810,Madison Ave & E 26 St,6131.12,E 2 St & Avenue A,5553.1,40.742684734875695,-73.98671329021454,40.72307749068673,-73.98583620786667,member,14.706633333333334,17,2.1814782334086043,2.1814782334086043,8.899976700163617,Evening,0,2,0,1,1,Winter
21280CFF2C4E3FD0,electric_bike,2023-01-05 18:07:04.950,2023-01-05 18:19:50.310,E 53 St & Lexington Ave,6617.09,W 46 St & 11 Ave,6795.01,40.75828065,-73.97069431,40.76341379,-73.99667444,member,12.756,18,2.261360275046476,2.261360275046476,10.636689910848895,Evening,1,3,0,1,1,Winter
277445D8E2441814,classic_bike,2023-01-07 15:58:24.011,2023-01-07 16:10:49.819,Clark St & Henry St,4789.03,Carroll St & Columbia St,4348.07,40.69760127,-73.99344559,40.6830456,-74.00348559,member,12.430133333333334,15,1.826516246930881,1.826516246930881,8.816556659289216,Midday,0,5,1,0,1,Winter
E3159D9CC65A88FC,electric_bike,2023-01-01 05:53:28.986,2023-01-01 06:14:14.055,St James Pl & Oliver St,5238.05,Meserole Ave & Manhattan Ave,5666.04,40.71307916,-73.99851193,40.72708584,-73.95299117,casual,20.75115,5,4.140376679544203,4.140376679544203,11.971510049932276,Morning,0,6,1,0,1,Winter
ED5A87E367308B62,classic_bike,2023-01-02 10:13:38.615,2023-01-02 10:18:07.677,E 14 St & 1 Ave,5779.1,Broadway & E 14 St,5905.12,40.73139303364151,-73.98286700248718,40.73454567,-73.99074142,member,4.484366666666667,10,0.7504062567890398,0.7504062567890398,10.040297494408511,Morning,0,0,0,0,1,Winter
69882BAD44E481E8,classic_bike,2023-01-12 13:45:11.265,2023-01-12 13:53:02.834,Stanton St & Norfolk St,5445.07,St Marks Pl & 1 Ave,5626.13,40.720747,-73.986274,40.72779126,-73.98564945,member,7.859483333333333,13,0.785052176093266,0.785052176093266,5.993158655330944,Midday,0,3,0,0,1,Winter
FC05AD00F688139F,electric_bike,2023-01-06 07:11:18.118,2023-01-06 07:37:14.961,West End Ave & W 94 St,7524.09,E 16 St & Irving Pl,5938.11,40.7941654,-73.974124,40.735367055605394,-73.98797392845154,member,25.94738333333333,7,6.641310104722929,6.641310104722929,15.357178840128736,Morning,1,4,0,1,1,Winter
6EAF14227475CBD6,classic_bike,2023-01-05 07:23:51.441,2023-01-05 07:27:56.520,Vesey Pl & River Terrace,5297.02,North Moore St & Greenwich St,5470.12,40.7153379,-74.01658354,40.72019521437465,-74.0103006362915,member,4.08465,7,0.7563730629582615,0.7563730629582615,11.110470610087935,Morning,0,3,0,1,1,Winter
DC11D4678F0B961E,classic_bike,2023-01-12 11:19:48.819,2023-01-12 11:30:19.589,6 Ave & 12 St,3803.05,S Portland Ave & Hanson Pl,4354.05,40.6663181,-73.9854617,40.68539567,-73.97431458,member,10.512833333333331,11,2.320286944542614,2.320286944542614,13.242597143734503,Morning,4,3,0,0,1,Winter
3A1C4F800E394521,electric_bike,2023-01-07 10:58:36.047,2023-01-07 11:27:37.151,Hoe Ave & Jennings St,8095.06,1 Ave & E 110 St,7522.02,40.832171,-73.889686,40.7923272,-73.9383,member,29.0184,10,6.030527845112919,6.030527845112919,12.469042769648745,Morning,2,5,1,0,1,Winter
B7BDA8A551869585,electric_bike,2023-01-05 20:42:54.720,2023-01-05 20:44:58.072,1 Ave & E 16 St,5779.08,Ave A & E 11 St,5703.13,40.73221853,-73.98165557,40.72854745023944,-73.98175925016403,member,2.0558666666666667,20,0.4082989203819602,0.4082989203819602,11.916110913281152,Evening,0,3,0,0,1,Winter
5056DF7A36484AC6,electric_bike,2023-01-04 02:30:36.152,2023-01-04 02:46:57.394,E 6 St & Avenue B,5584.04,Duffield St & Willoughby St,4596.05,40.72453734,-73.98185424,40.69221589,-73.9842844,casual,16.354033333333334,2,3.599813895027022,3.599813895027022,13.207068207534205,Night,0,2,0,0,1,Winter
64D616196E82CDDD,electric_bike,2023-01-14 12:59:52.501,2023-01-14 13:03:44.437,21 Ave & 80 St,7060.02,Steinway St & 21 Ave,7137.04,40.770888,-73.889914,40.774798,-73.903787,member,3.8656,12,1.2465044544084904,1.2465044544084904,19.347647781588737,Midday,3,5,1,0,1,Winter
CFFCB3BBA9601DBB,classic_bike,2023-01-07 15:28:39.428,2023-01-07 15:40:46.004,E 7 St & Avenue A,5626.07,E 40 St & Park Ave,6432.11,40.72621788,-73.98379855,40.750756,-73.978326,member,12.1096,15,2.7671970499106817,2.7671970499106817,13.710760305430476,Midday,0,5,1,0,1,Winter
537EEEE58F77ECC2,classic_bike,2023-01-06 12:49:12.472,2023-01-06 12:57:51.072,Central Park W & W 91 St,7453.01,Central Park West & W 68 St,7079.06,40.78866499127883,-73.96680057048798,40.7734066,-73.97782542,member,8.643333333333334,12,1.9339925938488496,1.9339925938488496,13.425324600570493,Midday,1,4,0,0,1,Winter
749165FF2D7C4FB3,classic_bike,2023-01-10 20:15:47.678,2023-01-10 20:21:23.569,W 49 St & 8 Ave,6747.06,W 36 St & 9 Ave,6569.07,40.76227205,-73.98788205,40.75462324029105,-73.99516761302948,member,5.598183333333334,20,1.0487696780861566,1.0487696780861566,11.24046443968479,Evening,0,1,0,0,1,Winter
ED8721CAFEF6C0CE,electric_bike,2023-01-08 13:04:14.726,2023-01-08 13:13:05.393,W 24 St & 7 Ave,6257.03,W 42 St & Dyer Ave,6644.07,40.74487634,-73.99529885,40.75898481399634,-73.99379968643188,member,8.84445,13,1.5738651429871762,1.5738651429871762,10.676967881465842,Midday,0,6,1,0,1,Winter
B96F6E291C572193,classic_bike,2023-01-07 10:43:05.790,2023-01-07 10:46:40.934,W 100 St & Broadway,7580.01,W 100 St & Manhattan Ave,7538.14,40.7973721,-73.97041192,40.795,-73.9645,member,3.585733333333333,10,0.563237353544394,0.563237353544394,9.424638719926271,Morning,1,5,1,0,1,Winter
1C44AF77D35DF4FB,classic_bike,2023-01-07 10:13:38.846,2023-01-07 10:35:00.492,Allen St & Hester St,5342.1,Rutgers St & Henry St,5230.02,40.71605866,-73.99190759,40.71332151208186,-73.99009689688683,member,21.360766666666667,10,0.3404741865506978,0.3404741865506978,0.9563538384097576,Morning,0,5,1,0,1,Winter
A51E09402C63823E,classic_bike,2023-01-13 14:16:09.838,2023-01-13 14:27:40.847,Broadway & W 25 St,6173.08,Mott St & Prince St,5561.04,40.74286877312112,-73.98918628692627,40.72317958,-73.99480012,member,11.516816666666667,14,2.239854022471775,2.239854022471775,11.669130909870043,Midday,0,4,0,0,1,Winter
537AB43A7F2D139E,classic_bike,2023-01-06 10:04:53.405,2023-01-06 10:08:46.716,Smith St & 3 St,4151.01,3 Ave & Carroll St,4143.04,40.6787242,-73.99599099,40.677027,-73.9865,member,3.888516666666667,10,0.8223111993066633,0.8223111993066633,12.68830152673465,Morning,4,4,0,0,1,Winter
A3428F16CDB3C544,electric_bike,2023-01-13 18:32:28.011,2023-01-13 18:51:47.400,Classon Ave & St Marks Ave,4074.14,Albee Square W & Fulton St,4556.08,40.676513,-73.959431,40.69068758614303,-73.98347854614258,member,19.32315,18,2.568245994027846,2.568245994027846,7.974619026487439,Evening,4,4,0,1,1,Winter
5B7C0AB1FBF486D3,electric_bike,2023-01-11 12:30:29.338,2023-01-11 12:44:58.149,35 Ave & 37 St,6563.12,1 Ave & E 68 St,6822.09,40.7557327,-73.9236611,40.76500525,-73.95818491,member,14.480183333333336,12,3.085133441170283,3.085133441170283,12.783540250080875,Midday,3,2,0,0,1,Winter
D4DD3AD36FB8C4C6,classic_bike,2023-01-09 18:17:34.101,2023-01-09 18:23:40.507,Washington Pl & Broadway,5755.01,E 1 St & 1 Ave,5593.01,40.72903917,-73.99404649,40.72335597960796,-73.98864984512329,member,6.106766666666667,18,0.7785621524904661,0.7785621524904661,7.649502871038351,Evening,0,0,0,1,1,Winter
7810DA310D3728DD,classic_bike,2023-01-13 15:52:04.967,2023-01-13 16:14:15.178,31 St & Thomson Ave,6227.02,21 Ave & 80 St,7060.02,40.74469738,-73.93540375,40.770888,-73.889914,member,22.17018333333333,15,4.81264834129472,4.81264834129472,13.024650997970245,Midday,3,4,0,0,1,Winter
ACFBF781CD601C28,electric_bike,2023-01-03 16:23:54.859,2023-01-03 16:55:28.154,E 23 St & 1 Ave,5929.01,3 St & 7 Ave,3905.15,40.736502,-73.97809472,40.6703837,-73.97839676,member,31.554916666666667,16,7.352063605125011,7.352063605125011,13.97955890574371,Midday,0,1,0,1,1,Winter
1C66D41347A07D3E,classic_bike,2023-01-10 07:28:54.868,2023-01-10 07:54:41.137,Vesey St & Church St,5216.06,Allen St & Hester St,5342.1,40.71221958009051,-74.01047229766846,40.71605866,-73.99190759,member,25.77115,7,1.6218731223760632,1.6218731223760632,3.7760203693883976,Morning,0,1,0,1,1,Winter
CD23E32A0BC8D7F9,classic_bike,2023-01-12 15:34:06.387,2023-01-12 15:41:43.158,Riverside Dr & W 91 St,7524.16,W 84 St & Broadway,7409.08,40.79313480986663,-73.97700369358063,40.7867947,-73.977112,member,7.61285,15,0.7050470126696573,0.7050470126696573,5.556765306052193,Midday,1,3,0,0,1,Winter
630802021266BCB1,classic_bike,2023-01-04 16:18:47.495,2023-01-04 16:59:23.982,Plaza St East & Flatbush Ave,4010.01,Eastern Pkwy & Rochester Ave,3853.02,40.673134,-73.969106,40.66846,-73.9282,casual,40.60811666666667,16,3.488843715458884,3.488843715458884,5.15489611709481,Midday,4,2,0,1,1,Winter
21E7D6191E049474,electric_bike,2023-01-08 15:16:34.166,2023-01-08 15:22:22.419,W 15 St & 7 Ave,6030.06,W 22 St & 10 Ave,6306.06,40.73935542,-73.99931783,40.74691959,-74.00451887,casual,5.804216666666666,15,0.948385585497158,0.948385585497158,9.80375792251544,Midday,0,6,1,0,1,Winter
FBFABC6DE1EE9935,classic_bike,2023-01-11 09:34:37.255,2023-01-11 09:45:41.612,Spruce St & Nassau St,5137.1,Rutgers St & Henry St,5230.02,40.71146364,-74.00552427,40.71332151208186,-73.99009689688683,member,11.072616666666669,9,1.3166047529291405,1.3166047529291405,7.134382734802078,Morning,0,2,0,1,1,Winter
84999BFF9624DECA,electric_bike,2023-01-10 16:27:49.665,2023-01-10 16:34:35.898,India St Pier,5794.05,Vernon Blvd & 50 Ave,6170.02,40.731734785883454,-73.9612390102593,40.74232744,-73.95411749,member,6.77055,16,1.3218727085078903,1.3218727085078903,11.714316046772185,Midday,0,1,0,1,1,Winter
4C0EB2720CC4AA19,electric_bike,2023-01-06 17:41:58.911,2023-01-06 18:00:43.512,King St & Varick St,5687.11,W 42 St & 8 Ave,6602.05,40.72789701409023,-74.00536268949507,40.7575699,-73.99098507,member,18.743350000000003,17,3.5147823324652143,3.5147823324652143,11.25129392279997,Evening,0,4,0,1,1,Winter
53AB51FE4EEE533D,classic_bike,2023-01-01 12:23:01.394,2023-01-01 12:58:09.310,Washington St & Barrow St,5847.08,S 5 Pl & S 5 St,5125.03,40.731911,-74.008769,40.710451,-73.960876,casual,35.131933333333336,12,4.68876234323461,4.68876234323461,8.007693112839695,Midday,0,6,1,0,1,Winter
2486CFB51D4F09BC,electric_bike,2023-01-09 11:39:06.234,2023-01-09 12:16:24.897,W 168th S & Fort Washington Ave,8226.07,W 47 St & 6 Ave,6667.04,40.84210236102173,-73.9422395825386,40.758397,-73.98255,member,37.31105,11,9.906795351933235,9.906795351933235,15.931144288782926,Morning,2,0,0,0,1,Winter
144C0E8368FB4E52,classic_bike,2023-01-05 22:10:04.622,2023-01-05 22:12:45.941,31 St & Hoyt Ave N,7018.01,37 St & 24 Ave,6981.16,40.7711528,-73.9170074,40.7701477,-73.9120938,member,2.68865,22,0.4286080186109787,0.4286080186109787,9.56483034856107,Night,3,3,0,0,1,Winter
5B1301A3BF807F3F,classic_bike,2023-01-14 11:33:34.408,2023-01-14 11:49:44.462,E 7 St & Ave B,5584.05,Mercer St & Spring St,5532.01,40.7251285241158,-73.98131668567657,40.72362738,-73.99949601,casual,16.167566666666666,11,1.5410353714614995,1.5410353714614995,5.718988156598909,Morning,0,5,1,0,1,Winter
0C91DB5491B6BB0F,classic_bike,2023-01-11 07:13:57.223,2023-01-11 07:21:38.921,1 Ave & E 44 St,6379.03,1 Ave & E 68 St,6822.09,40.75001986,-73.96905301,40.76500525,-73.95818491,member,7.694966666666667,7,1.9011851282656071,1.9011851282656071,14.824119796395449,Morning,0,2,0,1,1,Winter
5017A98B2B4F4664,electric_bike,2023-01-10 14:03:25.836,2023-01-10 14:21:33.094,Broadway & W 155 St,8123.02,West End Ave & W 94 St,7524.09,40.83299,-73.94592,40.7941654,-73.974124,member,18.120966666666668,14,4.926572554012424,4.926572554012424,16.312283923820033,Midday,2,1,0,0,1,Winter
49D55585C47A6646,electric_bike,2023-01-04 14:28:17.381,2023-01-04 14:41:14.907,E 6 St & 2 Ave,5669.12,Madison St & Clinton St,5190.07,40.72737869323223,-73.98840844631195,40.71269042,-73.98776323,member,12.958766666666666,14,1.634166375058569,1.634166375058569,7.566305114183769,Midday,0,2,0,0,1,Winter
28C6F9C061552AC3,electric_bike,2023-01-14 15:05:24.196,2023-01-14 15:09:07.012,E 7 St & Ave B,5584.05,St Marks Pl & 2 Ave,5669.1,40.7251285241158,-73.98131668567657,40.7284186,-73.98713956,member,3.7136,15,0.6120462892495311,0.6120462892495311,9.888727206745978,Midday,0,5,1,0,1,Winter
DC702A8E1697A029,electric_bike,2023-01-05 07:48:46.533,2023-01-05 07:56:50.450,2 Ave & E 99 St,7386.1,E 118 St & Madison Ave,7640.04,40.7862586,-73.94552579,40.8014866,-73.9442507,member,8.065283333333333,7,1.6966751334170105,1.6966751334170105,12.62206221377062,Morning,1,3,0,1,1,Winter
3D7597E9B6C82A55,electric_bike,2023-01-06 17:38:02.536,2023-01-06 17:42:40.589,Smith St & 3 St,4151.01,Columbia St & W 9 St,4086.05,40.6787242,-73.99599099,40.6769993,-74.00647134,member,4.634216666666666,17,0.904367006313217,0.904367006313217,11.708995129445038,Evening,4,4,0,1,1,Winter
54B0A22ED2BB1020,electric_bike,2023-01-08 00:24:39.214,2023-01-08 00:31:13.619,Morris Ave & E Burnside Ave,8441.01,Jerome Ave & W 184 St,8550.01,40.85322,-73.90546,40.860814,-73.902541,casual,6.573416666666666,0,0.879376005237412,0.879376005237412,8.026656910674772,Night,2,6,1,0,1,Winter
25E2AA3700C12A1D,electric_bike,2023-01-01 00:36:11.859,2023-01-01 01:01:53.600,Division St & Bowery,5270.08,E 33 St & 5 Ave,6322.01,40.714193,-73.996732,40.74765947,-73.98490707,casual,25.69568333333333,0,3.852385337159184,3.852385337159184,8.995406630408779,Night,0,6,1,0,1,Winter
6EBDE23BF0431477,classic_bike,2023-01-05 07:19:53.013,2023-01-05 07:24:56.059,Lafayette Ave & Ft Greene Pl,4470.09,Fulton St & Waverly Ave,4345.11,40.68700231292619,-73.97664964199066,40.68323865460341,-73.96599590778351,member,5.050766666666666,7,0.9910180563344866,0.9910180563344866,11.77268468418706,Morning,4,3,0,1,1,Winter
FBD4EBFBC093EA74,classic_bike,2023-01-04 19:32:13.840,2023-01-04 19:38:12.628,E 20 St & FDR Dr,5886.13,Broadway & E 19 St,6098.12,40.733208626522426,-73.9756813647,40.73866091428551,-73.98987293243407,member,5.9798,19,1.340630366967693,1.340630366967693,13.451590691672228,Evening,0,2,0,1,1,Winter
F01687EF099D1C62,electric_bike,2023-01-13 17:10:27.110,2023-01-13 17:20:46.598,W 135 St & Lenox Terrace Pl,7832.04,E 167 St & Clay Ave,8088.01,40.813619,-73.939336,40.83094,-73.91125,member,10.324800000000002,17,3.048733158833961,3.048733158833961,17.716952340969083,Evening,1,4,0,1,1,Winter
8263AD9A79A8EDE3,classic_bike,2023-01-05 07:44:12.341,2023-01-05 07:59:09.483,E 13 St & Avenue A,5779.09,Hudson St & Reade St,5359.1,40.72966729392978,-73.98067966103554,40.71625008,-74.0091059,member,14.952366666666668,7,2.822124341069761,2.822124341069761,11.324458812374338,Morning,0,3,0,1,1,Winter
F7A09EC1D20F95BE,electric_bike,2023-01-06 16:30:49.617,2023-01-06 16:54:54.050,11 Ave & W 41 St,6726.01,E 2 St & Avenue B,5515.02,40.76030096,-73.99884222,40.72217444,-73.98368779,member,24.07388333333333,16,4.427551506071164,4.427551506071164,11.034908107095442,Midday,0,4,0,1,1,Winter
9E610E90437F17A5,electric_bike,2023-01-14 13:29:48.980,2023-01-14 13:34:08.433,West End Ave & W 60 St,7059.08,W 70 St & Amsterdam Ave,7207.08,40.77237,-73.99005,40.77748046,-73.98288594,member,4.324216666666667,13,0.8287540928137461,0.8287540928137461,11.499249321185289,Midday,1,5,1,0,1,Winter
17C1A874256C73A2,electric_bike,2023-01-03 21:02:11.878,2023-01-03 21:54:22.091,Lafayette Ave & Classon Ave,4452.01,DeKalb Ave & Franklin Ave,4528.01,40.68900443,-73.96023854,40.69064807082943,-73.95746178925037,casual,52.17021666666667,21,0.2970084081452502,0.2970084081452502,0.3415838696353573,Night,4,1,0,0,1,Winter
480E8FEC8B4B1CD0,classic_bike,2023-01-14 17:21:59.670,2023-01-14 17:28:21.945,4 Ave & 9 St,3955.05,4 Ave & 3 St,4028.04,40.6705135,-73.98876585,40.673746,-73.985649,member,6.37125,17,0.4453000000414069,0.4453000000414069,4.193525603685997,Evening,4,5,1,1,1,Winter
E784E506213CBFC0,classic_bike,2023-01-11 08:46:28.741,2023-01-11 08:54:38.518,W 54 St & 11 Ave,6955.05,6 Ave & W 45 St,6593.15,40.768333,-73.992573,40.756951,-73.982631,member,8.16295,8,1.5175358916968356,1.5175358916968356,11.15431963956782,Morning,1,2,0,1,1,Winter
490F16B8454AA250,electric_bike,2023-01-04 16:24:16.411,2023-01-04 16:36:09.455,W 26 St & 10 Ave,6382.05,W 37 St & 5 Ave,6398.06,40.749717753,-74.002950346,40.75038009,-73.98338988,member,11.884066666666666,16,1.6493663674567682,1.6493663674567682,8.327282640123704,Midday,0,2,0,1,1,Winter
7B95ACBCEACFFC6F,electric_bike,2023-01-04 11:00:58.144,2023-01-04 11:07:42.254,Willoughby St & Ashland Pl,4587.02,Dock St & Front St,4903.09,40.69178,-73.97877,40.702709,-73.99253,member,6.735166666666667,11,1.6800268278666768,1.6800268278666768,14.966461063373924,Morning,4,2,0,0,1,Winter
7E1E7E72D52A5269,classic_bike,2023-01-07 19:49:21.006,2023-01-07 20:11:37.974,Eastern Pkwy & Washington Ave,3928.08,Douglass St & 3 Ave,4217.02,40.6716493,-73.9631145,40.6802133,-73.98432695,casual,22.2828,19,2.026544110614092,2.026544110614092,5.456793878545134,Evening,4,5,1,1,1,Winter
F8D59C2B249EB357,classic_bike,2023-01-08 12:15:52.080,2023-01-08 12:20:19.566,E 82 St & East End Ave,7049.04,E 80 St & 2 Ave,7121.02,40.7724607,-73.9468208,40.77391390238118,-73.9543953537941,member,4.4581,12,0.6579880565077967,0.6579880565077967,8.855629840171328,Midday,1,6,1,0,1,Winter
45815ECAFA0D5969,electric_bike,2023-01-05 09:21:49.873,2023-01-05 09:39:19.101,E 55 St & 2 Ave,6650.07,W 35 St & 9 Ave,6569.09,40.75797322,-73.96603308,40.75414519263519,-73.9960889518261,member,17.487133333333336,9,2.5671323872228093,2.5671323872228093,8.80807278685101,Morning,1,3,0,1,1,Winter
D0716BB131A654B9,classic_bike,2023-01-06 13:18:44.378,2023-01-06 13:28:31.504,E 102 St & 1 Ave,7407.13,Pleasant Ave & E 116 St,7450.05,40.7869946,-73.94164802,40.7949879,-73.9333349,member,9.785433333333334,13,1.1312701347061331,1.1312701347061331,6.9364539893346215,Midday,1,4,0,0,1,Winter
F9D5F51C74EC2211,classic_bike,2023-01-11 16:56:40.724,2023-01-11 17:07:18.566,E 30 St & Park Ave S,6206.08,E 30 St & Park Ave S,6206.08,40.74444921,-73.98303529,40.74444921,-73.98303529,member,10.6307,16,0.0,0.0,0.0,Midday,0,2,0,1,1,Winter
8CDF6063B4D82635,classic_bike,2023-01-04 17:23:11.221,2023-01-04 17:25:17.428,E 25 St & 2 Ave,6046.02,2 Ave & E 29 St,6122.09,40.73912601,-73.97973776,40.74172351097472,-73.97809267044067,member,2.10345,17,0.3203615995303277,0.3203615995303277,9.13817584055702,Evening,0,2,0,1,1,Winter
85A142AAE3B090E1,electric_bike,2023-01-10 07:04:45.857,2023-01-10 07:06:18.961,20 Ave & 38 St,7196.04,Steinway St & 21 Ave,7137.04,40.777112,-73.902382,40.774798,-73.903787,member,1.5517333333333334,7,0.2832004847096658,0.2832004847096658,10.950353851121294,Morning,3,1,0,1,1,Winter
186A69FD7ECAEA79,electric_bike,2023-01-05 10:55:17.048,2023-01-05 10:59:01.503,Cooper Square & Astor Pl,5712.03,E 17 St & Broadway,5980.07,40.72951496224949,-73.99075269699097,40.73704984,-73.99009296,member,3.740916666666666,10,0.8396822285904642,0.8396822285904642,13.46753702490776,Morning,0,3,0,0,1,Winter
490993FFBFBC61CE,classic_bike,2023-01-12 16:23:05.970,2023-01-12 16:24:34.080,W 31 St & 7 Ave,6331.01,6 Ave & W 33 St,6364.07,40.749156,-73.9916,40.74901271,-73.98848395,member,1.4685,16,0.2629746335012684,0.2629746335012684,10.744622410674909,Midday,0,3,0,1,1,Winter
C99DC05EC09D28DD,classic_bike,2023-01-10 09:25:59.516,2023-01-10 09:39:37.364,Mercer St & Bleecker St,5679.05,2 Ave & E 29 St,6122.09,40.72706363348306,-73.99662137031554,40.74172351097472,-73.97809267044067,member,13.6308,9,2.2571016356225733,2.2571016356225733,9.935300799465503,Morning,0,1,0,1,1,Winter
BB8176528CC30F70,electric_bike,2023-01-01 19:50:11.830,2023-01-01 19:58:01.850,2 Ave & E 125 St,7648.16,Lenox Ave & W 140 St,7872.03,40.802554,-73.933509,40.817245,-73.938787,member,7.833666666666667,19,1.6928824097633322,1.6928824097633322,12.966207129798724,Evening,1,6,1,1,1,Winter
86796032E1557D47,electric_bike,2023-01-04 21:08:35.356,2023-01-04 21:12:53.230,E 6 St & Avenue B,5584.04,E 1 St & 1 Ave,5593.01,40.72453734,-73.98185424,40.72335597960796,-73.98864984512329,member,4.2979,21,0.5875412125687884,0.5875412125687884,8.202255230258336,Night,0,2,0,0,1,Winter
81B638F5786ED8FA,classic_bike,2023-01-12 12:49:52.518,2023-01-12 12:58:24.627,14 St & 7 Ave,3731.11,Garfield Pl & 8 Ave,3978.13,40.663779,-73.98396846,40.6711978,-73.97484126,member,8.53515,12,1.1283233483704902,1.1283233483704902,7.931834929934379,Midday,4,3,0,0,1,Winter
8A03415B50756926,electric_bike,2023-01-02 04:18:55.879,2023-01-02 04:20:00.037,31 St & 21 Ave,7202.07,35 St & 21 Ave,7170.04,40.77813,-73.90842,40.776745,-73.906558,member,1.0693,4,0.2197706811905188,0.2197706811905188,12.331657038652514,Night,3,0,0,0,1,Winter
9CE50C057EBBFDFD,electric_bike,2023-01-05 17:16:31.335,2023-01-05 17:22:26.397,7 Ave & Park Pl,4125.07,Garfield Pl & 8 Ave,3978.13,40.6776147,-73.97324283,40.6711978,-73.97484126,member,5.9177,17,0.726148445995997,0.726148445995997,7.362473048610072,Evening,4,3,0,1,1,Winter
6DACCA52C424CBF6,classic_bike,2023-01-02 12:49:37.391,2023-01-02 13:03:28.385,7 Ave & 41 St,3192.05,14 St & 5 Ave,3771.06,40.647379,-74.000911,40.666287,-73.98895053,casual,13.8499,12,2.33202342426654,2.33202342426654,10.10270149647235,Midday,4,0,0,0,1,Winter
5D50B4993375DD05,electric_bike,2023-01-04 16:14:13.555,2023-01-04 16:18:26.969,65 St & 35 Ave,6417.04,Woodside Ave & 69 St,6183.03,40.75053,-73.8977,40.7428,-73.89584,casual,4.223566666666667,16,0.8737019206294449,0.8737019206294449,12.411811953033382,Midday,3,2,0,1,1,Winter
1B0FB148F402C3E0,classic_bike,2023-01-02 12:46:59.289,2023-01-02 12:53:30.296,W 10 St & Washington St,5847.06,6 Ave & Canal St,5500.07,40.73342399437081,-74.00851495563984,40.72243797,-74.00566443,member,6.516783333333334,12,1.2449814579962677,1.2449814579962677,11.462539670099416,Midday,0,0,0,0,1,Winter
27666A9DD80500C6,electric_bike,2023-01-01 22:40:09.584,2023-01-01 22:43:42.383,Adelphi St & Myrtle Ave,4620.02,DeKalb Ave & Hudson Ave,4513.06,40.69308257,-73.97178913,40.689888,-73.981013,member,3.54665,22,0.8549645110364131,0.8549645110364131,14.463753305847712,Night,4,6,1,0,1,Winter
21D5F8852FDEEB91,electric_bike,2023-01-13 07:54:03.967,2023-01-13 08:10:11.110,Myrtle Ave & Lewis Ave,4729.01,Plaza St West & Flatbush Ave,4010.13,40.69681963,-73.93756926,40.6750207,-73.97111473,casual,16.11905,7,3.725033293771116,3.725033293771116,13.865705337862154,Morning,4,4,0,1,1,Winter
7943B6C50AEF44E4,classic_bike,2023-01-01 14:11:43.083,2023-01-01 15:07:21.722,Spring St & Hudson St,5653.12,W 116 St & Broadway,7713.11,40.72583996792375,-74.0076532959938,40.8082,-73.9641,member,55.64398333333334,14,9.865221664639382,9.865221664639382,10.637507676841302,Midday,0,6,1,0,1,Winter
F7178587BBF77138,classic_bike,2023-01-08 13:31:04.724,2023-01-08 13:37:49.458,Warren St & Smith St,4371.01,Schermerhorn St & Court St,4565.07,40.68542400997018,-73.99127773940563,40.6910363748993,-73.99201065301895,casual,6.745566666666666,13,0.6271186133711218,0.6271186133711218,5.578051283401046,Midday,4,6,1,0,1,Winter
42F6C3902A6F3811,classic_bike,2023-01-05 17:11:54.343,2023-01-05 17:27:16.858,E 97 St & Madison Ave,7393.09,W 87 St & West End Ave,7484.05,40.787801,-73.953559,40.789622,-73.97757,member,15.37525,17,2.0315619017110094,2.0315619017110094,7.927917536473265,Evening,1,3,0,1,1,Winter
4A4568B61DCDEB37,classic_bike,2023-01-14 10:11:42.171,2023-01-14 10:17:48.374,24 Ave & 29 St,7119.04,31 St & Newtown Ave,6923.2,40.7729,-73.916142,40.7675487799971,-73.9209334552288,member,6.1033833333333325,10,0.718935777718931,0.718935777718931,7.067579456717045,Morning,3,5,1,0,1,Winter
5D13616D613CB89F,electric_bike,2023-01-04 17:36:52.731,2023-01-04 17:43:34.086,Greenwich St & Hubert St,5470.1,Washington Square E,5755.09,40.721319,-74.010065,40.73049393,-73.9957214,member,6.68925,17,1.5817039576705718,1.5817039576705718,14.18727622083706,Evening,0,2,0,1,1,Winter
2DF8FDC723A58CDA,electric_bike,2023-01-07 17:05:55.759,2023-01-07 17:14:38.271,Kenmare St & Elizabeth St,5453.06,Forsyth St & Grand St,5382.07,40.72054,-73.9949,40.71779817737835,-73.99316132068634,casual,8.708533333333332,17,0.3382614220992188,0.3382614220992188,2.330551488879084,Evening,0,5,1,1,1,Winter
83566F437ECACD86,classic_bike,2023-01-07 19:57:53.872,2023-01-07 20:08:05.590,Morton St & West St,5772.07,W 22 St & 10 Ave,6306.06,40.73142106543068,-74.01077985769007,40.74691959,-74.00451887,member,10.1953,19,1.802279520899956,1.802279520899956,10.606531563955684,Evening,0,5,1,1,1,Winter
E0FFE0663E1367D5,classic_bike,2023-01-08 12:41:55.443,2023-01-08 12:46:28.132,Fulton St & William St,5137.11,Albany St & Greenwich St,5145.02,40.70960089363537,-74.00655090808868,40.709267,-74.013247,casual,4.544816666666667,12,0.565625049659094,0.565625049659094,7.467298566398858,Midday,0,6,1,0,1,Winter
D8EA5E16C960FC3D,electric_bike,2023-01-08 18:33:40.432,2023-01-08 19:23:12.151,11 Ave & Prospect Ave,3538.09,20 Ave & 31 St,7256.01,40.65629,-73.977335,40.78001336610564,-73.90667617321014,member,49.52865,18,14.990927364677004,14.990927364677004,18.16031008074357,Evening,4,6,1,1,1,Winter
EDB5BC2C443F6670,electric_bike,2023-01-07 20:12:22.704,2023-01-07 20:16:55.868,Lexington Ave & E 24 St,6089.07,Broadway & E 14 St,5905.12,40.74025878,-73.98409214,40.73454567,-73.99074142,casual,4.552733333333333,20,0.8470050128934432,0.8470050128934432,11.162591140913136,Evening,0,5,1,0,1,Winter
AD585E1860B9EB46,classic_bike,2023-01-14 16:24:32.595,2023-01-14 16:30:28.865,31 St & Newtown Ave,6923.2,31 Ave & 14 St,6966.04,40.7675487799971,-73.9209334552288,40.7682,-73.9322662,member,5.937833333333333,16,0.957127241612236,0.957127241612236,9.671479691818144,Midday,3,5,1,1,1,Winter
6F3CDAEC54512E34,classic_bike,2023-01-13 13:31:27.754,2023-01-13 13:35:27.993,Allen St & Stanton St,5484.09,Allen St & Hester St,5342.1,40.722055,-73.989111,40.71605866,-73.99190759,member,4.003983333333333,13,0.7071921341862666,0.7071921341862666,10.597328839491338,Midday,0,4,0,0,1,Winter
0C38D0EF9155A9A3,electric_bike,2023-01-05 20:27:41.584,2023-01-05 20:38:06.635,Carroll St & 6 Ave,4019.06,Lincoln Pl & Nostrand Ave,3952.07,40.6740886,-73.9787282,40.67077,-73.9507,member,10.417516666666668,20,2.3924043389708323,2.3924043389708323,13.779124615903337,Evening,4,3,0,0,1,Winter
C90F9CEE299556E9,electric_bike,2023-01-05 19:54:45.560,2023-01-05 20:02:08.364,Grand St & Havemeyer St,5267.08,Withers St & Kingsland Ave,5362.08,40.71286844,-73.95698119,40.71773,-73.94051,member,7.380066666666666,19,1.4897533431581258,1.4897533431581258,12.111706387858405,Evening,4,3,0,1,1,Winter
F694A954D4285A7D,electric_bike,2023-01-14 14:36:59.841,2023-01-14 15:23:08.881,4 Ave & 26 St,3596.04,Douglass St & 3 Ave,4217.02,40.660079,-73.998633,40.6802133,-73.98432695,member,46.150666666666666,14,2.543252293615161,2.543252293615161,3.30645575976316,Midday,4,5,1,0,1,Winter
ED8731400C348FF7,electric_bike,2023-01-04 22:35:56.420,2023-01-04 22:43:26.138,W 70 St & Amsterdam Ave,7207.08,W 87 St & West End Ave,7484.05,40.77748046,-73.98288594,40.789622,-73.97757,member,7.4953,22,1.422333612216452,1.422333612216452,11.385804001572602,Night,1,2,0,0,1,Winter
BA80CFE897B72AEB,electric_bike,2023-01-11 13:21:06.188,2023-01-11 13:58:05.124,Steinway St & 19 Ave,7220.01,Broadway & W 29 St,6289.06,40.778089,-73.899558,40.7462009,-73.98855723,member,36.98226666666667,13,8.292048119428303,8.292048119428303,13.453012268015794,Midday,3,2,0,0,1,Winter
CE5DDC70348EF21B,electric_bike,2023-01-03 06:48:53.152,2023-01-03 06:55:32.481,Union Ave & Wallabout St,4818.03,Sands St Gate,4812.04,40.70029511,-73.95032283,40.699569,-73.979827,member,6.655483333333334,6,2.488534603332246,2.488534603332246,22.43444521183306,Morning,4,1,0,0,1,Winter
142851E5EABBCC32,classic_bike,2023-01-10 07:10:50.508,2023-01-10 07:51:11.692,Amsterdam Ave & W 73 St,7260.09,6 Ave & Canal St,5500.07,40.77966809007312,-73.98093044757842,40.72243797,-74.00566443,member,40.35306666666667,7,6.696088910048348,6.696088910048348,9.956252840004746,Morning,1,1,0,1,1,Winter
8B7F31F35C6FAF9C,classic_bike,2023-01-10 16:57:44.689,2023-01-10 17:10:07.521,Broad St & Bridge St,4962.08,Clinton St & Grand St,5303.06,40.70365182,-74.01167797,40.71559509,-73.9870295,member,12.380533333333334,16,2.465769020979629,2.465769020979629,11.949900482917624,Midday,0,1,0,1,1,Winter
F2BABA3E195FC204,classic_bike,2023-01-09 15:39:25.652,2023-01-09 15:41:18.437,1 Ave & E 18 St,5854.09,1 Ave & E 16 St,5779.08,40.73381219196632,-73.98054420948029,40.73221853,-73.98165557,member,1.87975,15,0.2004275214656603,0.2004275214656603,6.397473753392537,Midday,0,0,0,0,1,Winter
1C653019FA29552E,electric_bike,2023-01-10 10:34:04.181,2023-01-10 10:41:46.206,8 Ave & W 49 St,6747.07,E 55 St & 2 Ave,6650.07,40.76171227910671,-73.98655101656914,40.75797322,-73.96603308,member,7.700416666666666,10,1.7774317553593857,1.7774317553593857,13.849368149545562,Morning,0,1,0,0,1,Winter
33CC269666ECB9C6,electric_bike,2023-01-11 13:07:18.482,2023-01-11 13:11:33.846,Monroe St & Tompkins Ave,4434.06,Lefferts Pl & Franklin Ave,4222.02,40.686203,-73.944694,40.680342423,-73.9557689392,member,4.256066666666666,13,1.1387548426589444,1.1387548426589444,16.053623195016527,Midday,4,2,0,0,1,Winter
880DFEBDFCAA2BBE,classic_bike,2023-01-05 17:41:21.117,2023-01-05 17:45:39.108,W 26 St & 8 Ave,6297.02,8 Ave & W 31 St,6450.05,40.74734825,-73.99723551,40.7505853470215,-73.9946848154068,member,4.29985,17,0.4192028352956952,0.4192028352956952,5.849545941775111,Evening,0,3,0,1,1,Winter
8988C62393D1C927,electric_bike,2023-01-05 13:11:03.082,2023-01-05 13:17:16.071,University Pl & E 14 St,5905.14,E 33 St & 5 Ave,6322.01,40.734814,-73.992085,40.74765947,-73.98490707,member,6.216483333333333,13,1.551091510332972,1.551091510332972,14.970761703960973,Midday,0,3,0,0,1,Winter
5C0CD97BB724C0A7,electric_bike,2023-01-06 19:18:40.897,2023-01-06 19:22:12.931,1 Ave & E 6 St,5626.15,E 9 St & Avenue C,5616.01,40.72633085971696,-73.98616880178452,40.72521311,-73.97768752,member,3.5339,19,0.7254277209122367,0.7254277209122367,12.316608634860692,Evening,0,4,0,1,1,Winter
75A8EFF063EB3B46,classic_bike,2023-01-04 16:14:12.675,2023-01-04 16:37:33.185,South St & Broad St,4920.13,8 Ave & W 33 St,6450.12,40.70188858913366,-74.01089876890182,40.751551,-73.993934,member,23.341833333333334,16,5.704248130863791,5.704248130863791,14.662725200897992,Midday,0,2,0,1,1,Winter
4FEAB53A51220802,classic_bike,2023-01-04 19:21:09.505,2023-01-04 19:34:52.294,W 41 St & 8 Ave,6602.03,Broadway & W 61 St,7014.12,40.75640548,-73.9900262,40.77003010255044,-73.9819684624672,member,13.71315,19,1.660038264286842,1.660038264286842,7.263268895710359,Evening,0,2,0,1,1,Winter
50D23282E94A5EF3,electric_bike,2023-01-04 04:57:08.167,2023-01-04 05:14:33.884,Putnam Ave & Knickerbocker Ave,4663.06,Eastern Pkwy & Rochester Ave,3853.02,40.69545,-73.91164,40.66846,-73.9282,member,17.428616666666667,4,3.310110840958681,3.310110840958681,11.39543397252914,Night,3,2,0,0,1,Winter
98F74CD6EBAD7D2D,classic_bike,2023-01-04 12:26:53.417,2023-01-04 12:31:01.007,39 St & 47 Ave,6143.05,47 Ave & 31 St,6151.03,40.74215636827728,-73.92662644386292,40.743,-73.93561,member,4.1265,12,0.7626271436018429,0.7626271436018429,11.088726188321962,Midday,3,2,0,0,1,Winter
55FC4712FC4598B1,classic_bike,2023-01-13 18:32:09.050,2023-01-13 18:53:15.033,W 37 St & 5 Ave,6398.06,1 Ave & E 6 St,5626.15,40.75038009,-73.98338988,40.72633085971696,-73.98616880178452,member,21.099716666666662,18,2.684382226570245,2.684382226570245,7.633416890789912,Evening,0,4,0,1,1,Winter
8F334F7B5C3ABBCE,classic_bike,2023-01-13 08:54:03.098,2023-01-13 09:00:41.306,W 47 St & 10 Ave,6824.07,Broadway & W 48 St,6708.04,40.76269882,-73.99301222,40.76017739537783,-73.98486793041229,member,6.6368,8,0.7410228032553988,0.7410228032553988,6.699217724705269,Morning,0,4,0,1,1,Winter
089D202E54D60063,classic_bike,2023-01-07 15:52:07.772,2023-01-07 16:06:38.951,Christopher St & Greenwich St,5847.01,E 11 St & Avenue B,5659.11,40.73291553,-74.00711384,40.72746420692392,-73.97950418293476,casual,14.51965,15,2.404128966506671,2.404128966506671,9.934656688721851,Midday,0,5,1,0,1,Winter
23A3BD3C0F0E5345,electric_bike,2023-01-01 13:57:58.871,2023-01-01 14:23:08.760,Central Park W & W 103 St,7577.27,W 84 St & Columbus Ave,7382.04,40.79558954105342,-73.96188408136368,40.78499979,-73.97283406,member,25.164816666666663,13,1.4954446920889042,1.4954446920889042,3.565560707787166,Midday,1,6,1,0,1,Winter
B5CB8B23CFED8E5C,electric_bike,2023-01-09 15:54:55.522,2023-01-09 16:20:14.279,Graham Ave & Grand St,5178.06,E 81 St & 3 Ave,7154.07,40.711863,-73.944024,40.77573034,-73.9567526,member,25.312616666666667,15,7.182225611561819,7.182225611561819,17.024456316331413,Midday,4,0,0,0,1,Winter
E709315770EB5346,classic_bike,2023-01-02 15:18:09.218,2023-01-02 15:21:27.713,India St Pier,5794.05,Milton St & Franklin St,5752.07,40.731734785883454,-73.9612390102593,40.72906,-73.95779,member,3.30825,15,0.415837605622458,0.415837605622458,7.541829165675956,Midday,0,0,0,0,1,Winter
6C40223A4C8E361D,classic_bike,2023-01-14 06:14:26.190,2023-01-14 06:19:47.144,W 41 St & 8 Ave,6602.03,W 37 St & 5 Ave,6398.06,40.75640548,-73.9900262,40.75038009,-73.98338988,member,5.349233333333333,6,0.8725644865832727,0.8725644865832727,9.787172466147116,Morning,0,5,1,0,1,Winter
92673B1869930971,classic_bike,2023-01-11 17:59:26.757,2023-01-11 18:16:48.948,Grand St & Elizabeth St,5382.06,E 10 St & 2 Ave,5746.02,40.718822,-73.99596,40.72970805644994,-73.9865979552269,member,17.36985,17,1.4448782302258742,1.4448782302258742,4.990986900494388,Evening,0,2,0,1,1,Winter
47C4DB7F23ECF944,classic_bike,2023-01-04 08:38:19.228,2023-01-04 08:49:55.809,E 39 St & 2 Ave,6345.08,3 Ave & E 62 St,6762.04,40.74803319428767,-73.973827958107,40.76312584,-73.96526895,member,11.609683333333331,8,1.8265208354897016,1.8265208354897016,9.439641632147485,Morning,0,2,0,1,1,Winter
ECF7442B655B6CD3,classic_bike,2023-01-06 16:58:07.697,2023-01-06 17:25:48.064,Centre St & Worth St,5279.03,W 18 St & 6 Ave,6064.08,40.71494807,-74.00234482,40.73971301,-73.99456405,member,27.67278333333333,16,2.8307143656514118,2.8307143656514118,6.137541709962364,Midday,0,4,0,1,1,Winter
97B6D9F56E9EC903,electric_bike,2023-01-07 10:25:04.335,2023-01-07 10:39:32.919,Frederick Douglass Blvd & W 129 St,7795.09,River Ave & E 153 St,8005.08,40.8125511,-73.9492286,40.82441,-73.92818,member,14.4764,10,2.2082049354721147,2.2082049354721147,9.15229588352953,Morning,1,5,1,0,1,Winter
5BAADCDD2B2BA0B0,electric_bike,2023-01-03 08:42:50.025,2023-01-03 08:58:15.135,W 67 St & Broadway,7116.04,8 Ave & W 31 St,6450.05,40.77492513,-73.98266566,40.7505853470215,-73.9946848154068,member,15.4185,8,2.889569893712919,2.889569893712919,11.24455644989948,Morning,1,1,0,1,1,Winter
0673DE79F1CD65EA,classic_bike,2023-01-08 03:45:38.922,2023-01-08 03:52:50.644,W 20 St & 7 Ave,6182.02,E 26 St & 3 Ave,6089.11,40.74238787,-73.99726235,40.74069317733043,-73.98160636425018,member,7.195366666666667,3,1.332380155748338,1.332380155748338,11.110317659730145,Night,0,6,1,0,1,Winter
554C89E3D49B29B7,classic_bike,2023-01-04 07:55:56.437,2023-01-04 07:59:51.621,W 20 St & 7 Ave,6182.02,Broadway & W 25 St,6173.08,40.74238787,-73.99726235,40.74286877312112,-73.98918628692627,member,3.919733333333333,7,0.6824799649732062,0.6824799649732062,10.44683258173831,Morning,0,2,0,1,1,Winter
2FE5676E6EF116E6,classic_bike,2023-01-11 08:12:34.057,2023-01-11 08:16:23.686,Court St & Nelson St,4077.07,Smith St & 3 St,4151.01,40.6763947,-73.99869893,40.6787242,-73.99599099,member,3.82715,8,0.3453161287788825,0.3453161287788825,5.413680604818978,Morning,4,2,0,1,1,Winter
880BCE68EDE55D3C,electric_bike,2023-01-07 10:25:50.707,2023-01-07 10:47:20.027,62 St & Northern Blvd,6536.02,Wyckoff Av & Jefferson St,5051.01,40.754176,-73.900318,40.707165,-73.923711,member,21.488666666666667,10,5.586674709323495,5.586674709323495,15.598942817581811,Morning,3,5,1,0,1,Winter
091EE4640C2046EB,electric_bike,2023-01-02 13:12:35.171,2023-01-02 13:41:17.270,12 Ave & W 40 St,6765.01,Grand St & Elizabeth St,5382.06,40.76087502,-74.00277668,40.718822,-73.99596,member,28.70165,13,4.711218071252078,4.711218071252078,9.8486701731477,Midday,0,0,0,0,1,Winter
6CAD2CD3EE7A6B3C,classic_bike,2023-01-08 14:19:05.053,2023-01-08 14:37:04.903,Putnam Ave & Wyckoff Ave,4735.03,Willoughby Ave & Walworth St,4634.02,40.69811,-73.90904,40.69331716,-73.95381995,casual,17.9975,14,3.812654973085728,3.812654973085728,12.710615273518194,Midday,3,6,1,0,1,Winter
21EE1EC575B2B4B9,classic_bike,2023-01-04 07:31:39.487,2023-01-04 07:59:47.677,Clinton St & 4 Place,4119.04,Bay St & Court St,3931.09,40.6783563,-74.00014502,40.671409,-74.001328,member,28.1365,7,0.7789197680444999,0.7789197680444999,1.6610163340383484,Morning,4,2,0,1,1,Winter
5357E34D6296B078,classic_bike,2023-01-12 02:50:47.471,2023-01-12 03:04:42.897,Franklin St & W Broadway,5430.08,W 22 St & 10 Ave,6306.06,40.71911552,-74.00666661,40.74691959,-74.00451887,member,13.923766666666667,2,3.096963282680962,3.096963282680962,13.345368491825084,Night,0,3,0,0,1,Winter
5A5824B9B9AD6674,electric_bike,2023-01-04 07:22:38.809,2023-01-04 07:26:02.256,8 Ave & W 33 St,6450.12,W 34 St & 11 Ave,6578.01,40.751551,-73.993934,40.75594159,-74.0021163,member,3.3907833333333333,7,0.8446123191811132,0.8446123191811132,14.945437136217333,Morning,0,2,0,1,1,Winter
C5BC9E1E210DFD19,electric_bike,2023-01-08 00:41:18.242,2023-01-08 00:50:26.147,Broadway & Berry St,5164.05,Clinton St & Grand St,5303.06,40.71036129922581,-73.96530389785767,40.71559509,-73.9870295,member,9.13175,0,1.9213833941942344,1.9213833941942344,12.624415216322616,Night,0,6,1,0,1,Winter
AB96983F071E7A35,classic_bike,2023-01-14 17:12:31.886,2023-01-14 17:23:19.007,W 47 St & 10 Ave,6824.07,W 36 St & 7 Ave,6483.06,40.76269882,-73.99301222,40.752149,-73.989539,member,10.78535,17,1.209013167398659,1.209013167398659,6.725863327932756,Evening,0,5,1,1,1,Winter
994AC64B4D42B6A1,classic_bike,2023-01-04 18:26:42.797,2023-01-04 18:32:01.956,North Moore St & Greenwich St,5470.12,Vesey St & Church St,5216.06,40.72019521437465,-74.0103006362915,40.71221958009051,-74.01047229766846,member,5.3193166666666665,18,0.8869680705171725,0.8869680705171725,10.004684354387065,Evening,0,2,0,1,1,Winter
A7C7036FE9AFA1FD,classic_bike,2023-01-13 13:50:31.533,2023-01-13 13:55:20.634,W 18 St & 6 Ave,6064.08,Gramercy Park N & Gramercy Park E,6013.12,40.73971301,-73.99456405,40.73795,-73.98509,member,4.81835,13,0.8219240615427359,0.8219240615427359,10.234923509617223,Midday,0,4,0,0,1,Winter
B2113730846D60FC,classic_bike,2023-01-04 09:15:30.486,2023-01-04 09:24:51.616,Lafayette St & E 8 St,5788.13,1 Ave & E 30 St,6079.03,40.73020660529954,-73.99102628231049,40.74144387,-73.97536082,member,9.352166666666667,9,1.8175395808958412,1.8175395808958412,11.660653487115336,Morning,0,2,0,1,1,Winter
02EEBAA70FC5D59A,electric_bike,2023-01-03 09:26:15.203,2023-01-03 09:37:13.860,E 16 St & 5 Ave,6022.04,10 Ave & W 28 St,6459.04,40.73726186,-73.99238967,40.75066386,-74.00176802,member,10.977616666666668,9,1.6867198953901303,1.6867198953901303,9.219049707821322,Morning,0,1,0,1,1,Winter
EA8BBACE44CFDB50,electric_bike,2023-01-09 14:16:27.079,2023-01-09 14:26:24.854,Edgecombe Ave & W 145 St,7976.08,Lenox Ave & W 126 St,7720.03,40.823498,-73.94386,40.808442,-73.9452087,member,9.962916666666668,14,1.6779936791845165,1.6779936791845165,10.105436401763637,Midday,2,0,0,0,1,Winter
BB776D2995E81B5D,classic_bike,2023-01-04 06:01:32.304,2023-01-04 06:03:31.333,West Drive & Prospect Park West,3651.04,Windsor Pl & 8 Ave,3620.02,40.6610633719006,-73.97945255041122,40.660906,-73.983074,member,1.9838166666666663,6,0.3059702530539535,0.3059702530539535,9.253987776039729,Morning,4,2,0,0,1,Winter
6A92539665016530,electric_bike,2023-01-10 12:27:06.615,2023-01-10 12:33:08.247,River Ter & Warren St,5368.03,Broadway & Battery Pl,4962.01,40.71759894980997,-74.01587963104248,40.70463334,-74.01361706,member,6.0272,12,1.4542682044130102,1.4542682044130102,14.477052738382769,Midday,0,1,0,0,1,Winter
DFED48CE9A0C43A1,classic_bike,2023-01-04 18:22:23.306,2023-01-04 18:28:27.877,FDR Drive & E 35 St,6230.04,E 20 St & FDR Dr,5886.13,40.744219,-73.97121214,40.733208626522426,-73.9756813647,member,6.076183333333334,18,1.2808930165455126,1.2808930165455126,12.648331489788944,Evening,0,2,0,1,1,Winter
0A7C16C9EBFFA786,classic_bike,2023-01-02 12:38:10.998,2023-01-02 12:47:15.858,E 12 St & Ave C,5616.08,5 Ave & E 29 St,6248.06,40.727243,-73.976831,40.7451677,-73.98683077,member,9.081,12,2.163895867111685,2.163895867111685,14.297296776423424,Midday,0,0,0,0,1,Winter
9DDDDF3126C808BF,electric_bike,2023-01-03 15:25:22.736,2023-01-03 15:30:12.149,St. Nicholas Ave & W 126 St,7756.1,Broadway & W 131 St,7865.09,40.8114323,-73.9518776,40.817555,-73.957163,member,4.82355,15,0.8132344066498067,0.8132344066498067,10.115799442109733,Midday,1,1,0,0,1,Winter
4551BFFDC19D7A2F,electric_bike,2023-01-02 19:32:08.590,2023-01-02 19:57:22.512,48 St & 2 Ave,3283.05,Broadway & Madison St,4483.1,40.650176,-74.015606,40.68822,-73.91966,casual,25.232033333333334,19,9.131086760978626,9.131086760978626,21.713081875765763,Evening,4,0,0,1,1,Winter
9B3B6402ED82BEDC,classic_bike,2023-01-05 15:13:05.041,2023-01-05 16:50:15.294,Norfolk St & Broome St,5374.01,Little West St & 1 Pl,5001.08,40.7172274,-73.98802084,40.70569254,-74.01677685,casual,97.17088333333332,15,2.7421884021185443,2.7421884021185443,1.6932161001635369,Midday,0,3,0,0,1,Winter
F98863EC99091285,electric_bike,2023-01-09 07:06:32.764,2023-01-09 07:09:17.377,E 63 St & 3 Ave,6830.02,1 Ave & E 68 St,6822.09,40.763954,-73.9646,40.76500525,-73.95818491,member,2.74355,7,0.5527736627176059,0.5527736627176059,12.088870172971642,Morning,1,0,0,1,1,Winter
704EA162C313E0DB,classic_bike,2023-01-09 13:29:04.763,2023-01-09 13:40:48.235,Forsyth St & Canal St,5270.07,Rutgers St & Henry St,5230.02,40.7158155,-73.99422366,40.71332151208186,-73.99009689688683,member,11.724533333333332,13,0.444836514616156,0.444836514616156,2.276439506644418,Midday,0,0,0,0,1,Winter
489F397C6A005CBD,classic_bike,2023-01-10 14:00:56.616,2023-01-10 14:37:23.673,W 53 St & 10 Ave,6890.01,W 53 St & 10 Ave,6890.01,40.76669671,-73.99061728,40.76669671,-73.99061728,member,36.45095,14,0.0,0.0,0.0,Midday,0,1,0,0,1,Winter
FC5F6B30C6A33F65,electric_bike,2023-01-05 07:41:37.164,2023-01-05 07:56:39.566,Grand Concourse & E 167 St,8126.07,E Fordham Rd & Webster Ave,8582.09,40.834263,-73.917641,40.861748,-73.89105,member,15.040033333333334,7,3.787205140043988,3.787205140043988,15.108497658646986,Morning,2,3,0,1,1,Winter
EE08CD5D3B4568C3,electric_bike,2023-01-10 08:43:23.371,2023-01-10 08:51:36.505,E 17 St & Broadway,5980.07,Broadway & W 41 St,6560.01,40.73704984,-73.99009296,40.75513557,-73.98658032,member,8.2189,8,2.032695768944442,2.032695768944442,14.83918117225742,Morning,0,1,0,1,1,Winter
9D5EEE51447819AE,classic_bike,2023-01-06 20:12:22.783,2023-01-06 20:18:23.645,W 11 St & 6 Ave,5914.03,E 11 St & 3 Ave,5788.16,40.73532427,-73.99800419,40.73127,-73.98849,casual,6.014366666666667,20,0.9197168128788804,0.9197168128788804,9.175198625413508,Evening,0,4,0,0,1,Winter
D896420C95F7889B,classic_bike,2023-01-10 07:27:39.418,2023-01-10 07:38:56.346,8 Ave & W 33 St,6450.12,W 46 St & 11 Ave,6795.01,40.751551,-73.993934,40.76341379,-73.99667444,member,11.282133333333332,7,1.3391251108340012,1.3391251108340012,7.121659022824296,Morning,0,1,0,1,1,Winter
4EDA6D94C587B030,classic_bike,2023-01-03 09:21:57.127,2023-01-03 09:31:32.228,W 42 St & 8 Ave,6602.05,Broadway & W 25 St,6173.08,40.7575699,-73.99098507,40.74286877312112,-73.98918628692627,member,9.585016666666666,9,1.641698319624636,1.641698319624636,10.27665392800341,Morning,0,1,0,1,1,Winter
9845247607762EA9,classic_bike,2023-01-11 21:09:15.923,2023-01-11 21:13:34.202,8 Ave & W 31 St,6450.05,9 Ave & W 22 St,6266.06,40.7505853470215,-73.9946848154068,40.7454973,-74.00197139,member,4.30465,21,0.8347844690221123,0.8347844690221123,11.635572727475344,Night,0,2,0,0,1,Winter
2FC49E9F793BA2C4,classic_bike,2023-01-03 17:23:04.307,2023-01-03 17:31:54.689,E 44 St & Lexington Ave,6464.09,E 58 St & 1 Ave (NE Corner),6682.03,40.752643,-73.974996,40.75892386377695,-73.96226227283478,member,8.839699999999999,17,1.279903605706326,1.279903605706326,8.687423367578036,Evening,0,1,0,1,1,Winter
F3622317CAE2FE68,classic_bike,2023-01-05 07:15:25.604,2023-01-05 07:40:02.246,Henry St & Atlantic Ave,4531.05,Henry St & Atlantic Ave,4531.05,40.69089272,-73.99612349,40.69089272,-73.99612349,member,24.6107,7,0.0,0.0,0.0,Morning,4,3,0,1,1,Winter
D7E942015D2C5987,electric_bike,2023-01-11 17:24:52.008,2023-01-11 17:49:37.711,Driggs Ave & N Henry St,5542.04,Clermont Ave & Lafayette Ave,4461.01,40.72325,-73.94308,40.68764484,-73.96968902,member,24.761716666666665,17,4.550331286038776,4.550331286038776,11.025886485885533,Evening,3,2,0,1,1,Winter
E72D546CC2C5DA42,classic_bike,2023-01-11 08:33:29.688,2023-01-11 08:35:56.716,E 84 St & 1 Ave,7180.02,E 85 St & 3 Ave,7212.05,40.77565541,-73.95068615,40.77801203,-73.95407149,member,2.4504666666666663,8,0.3872010976092672,0.3872010976092672,9.480670017910615,Morning,1,2,0,1,1,Winter
1CB6C573FDB397C7,classic_bike,2023-01-12 09:39:10.170,2023-01-12 09:42:01.914,E 45 St & 3 Ave,6464.08,E 47 St & 1 Ave,6498.09,40.75255434,-73.97282625,40.75206862,-73.96784384,member,2.8624,9,0.4231515415478623,0.4231515415478623,8.8698618267439,Morning,0,3,0,1,1,Winter
ECC8524252C4AFD7,classic_bike,2023-01-13 09:26:51.673,2023-01-13 09:39:18.481,North Moore St & Greenwich St,5470.12,9 Ave & W 18 St,6190.08,40.72019521437465,-74.0103006362915,40.74317449,-74.00366443,casual,12.4468,9,2.6156472976544265,2.6156472976544265,12.60876995366404,Morning,0,4,0,1,1,Winter
598BBB2373CE9121,electric_bike,2023-01-12 12:50:49.217,2023-01-12 12:56:32.526,W 21 St & 6 Ave,6140.05,W 29 St & 9 Ave,6416.06,40.74173969,-73.99415556,40.7500727,-73.99839279,member,5.721816666666667,12,0.9929668172374904,0.9929668172374904,10.412428867448757,Midday,0,3,0,0,1,Winter
95D3CC9329DD4B0D,classic_bike,2023-01-13 05:51:00.614,2023-01-13 05:52:26.372,W 41 St & 8 Ave,6602.03,Broadway & W 41 St,6560.01,40.75640548,-73.9900262,40.75513557,-73.98658032,member,1.4293,5,0.3227734981978621,0.3227734981978621,13.549576640223693,Morning,0,4,0,0,1,Winter
DF6FC13E59FA91C3,classic_bike,2023-01-01 15:34:47.756,2023-01-01 16:12:32.003,Kosciuszko St & Tompkins Ave,4553.04,Norfolk St & Broome St,5374.01,40.69128258,-73.9452416,40.7172274,-73.98802084,member,37.73745,15,4.618085400627787,4.618085400627787,7.34244428379944,Midday,4,6,1,0,1,Winter
48F2BA1A4A00C7AA,electric_bike,2023-01-09 15:11:33.869,2023-01-09 15:21:37.210,Madison Ave & E 82 St,7188.13,Broadway & W 56 St,6847.02,40.7781314,-73.96069399,40.7652654,-73.98192338,member,10.055683333333333,15,2.289688300839808,2.289688300839808,13.662054929174897,Midday,1,0,0,0,1,Winter
1F26A9DB96046838,classic_bike,2023-01-07 16:26:05.618,2023-01-07 16:30:19.634,Thompson St & Bleecker St,5721.07,Thompson St & Bleecker St,5721.07,40.72840059450829,-73.99968780577183,40.72840059450829,-73.99968780577183,member,4.2336,16,0.0,0.0,0.0,Midday,0,5,1,1,1,Winter
68EA2BBBBB560806,electric_bike,2023-01-13 11:33:57.626,2023-01-13 11:45:27.405,Thompson St & Bleecker St,5721.07,2 Ave & E 29 St,6122.09,40.72840059450829,-73.99968780577183,40.74172351097472,-73.97809267044067,member,11.496316666666669,11,2.346346613102906,2.346346613102906,12.245730599468033,Morning,0,4,0,0,1,Winter
D304871DF9E058EF,electric_bike,2023-01-04 12:29:19.471,2023-01-04 12:32:15.951,Frederick Douglass Blvd & W 112 St,7631.23,W 110 St & Amsterdam Ave,7646.04,40.801694,-73.957145,40.802692,-73.96295,member,2.941333333333333,12,0.5010574095139989,0.5010574095139989,10.221026032697168,Midday,1,2,0,0,1,Winter
F408935F9A7B554D,classic_bike,2023-01-05 13:46:38.552,2023-01-05 13:59:53.454,W 67 St & Broadway,7116.04,Broadway & W 41 St,6560.01,40.77492513,-73.98266566,40.75513557,-73.98658032,member,13.248366666666668,13,2.225058958951436,2.225058958951436,10.076980875913216,Midday,1,3,0,0,1,Winter
B5B658BCB4FE39EB,electric_bike,2023-01-04 08:42:32.563,2023-01-04 08:48:51.768,W 41 St & 8 Ave,6602.03,E 40 St & Park Ave,6432.11,40.75640548,-73.9900262,40.750756,-73.978326,member,6.320083333333333,8,1.1687251378285426,1.1687251378285426,11.095345515440863,Morning,0,2,0,1,1,Winter
BCAB6DCCDB1D0D8D,classic_bike,2023-01-05 20:52:16.756,2023-01-05 20:56:32.137,Berry St & N 8 St,5379.09,Metropolitan Ave & Meeker Ave,5300.05,40.7190095,-73.95852515,40.71413311,-73.95234386,member,4.25635,20,0.7519373429939293,0.7519373429939293,10.599748747080422,Evening,0,3,0,0,1,Winter
C3CD09BC81B0A255,electric_bike,2023-01-11 06:23:41.427,2023-01-11 06:28:59.359,E 4 St & 2 Ave,5593.04,W 11 St & 6 Ave,5914.03,40.7262807,-73.98978041,40.73532427,-73.99800419,member,5.298866666666667,6,1.2212324890627706,1.2212324890627706,13.82823044118231,Morning,0,2,0,0,1,Winter
79CD71CE8DAE90C3,classic_bike,2023-01-10 07:51:51.414,2023-01-10 08:12:36.815,E 72 St & York Ave,6889.12,W 54 St & 11 Ave,6955.05,40.76663814,-73.95348296,40.768333,-73.992573,member,20.75668333333333,7,3.2973666802802595,3.2973666802802595,9.531484276155982,Morning,1,1,0,1,1,Winter
7AA0E0B322F7DFAF,electric_bike,2023-01-04 15:31:57.461,2023-01-04 15:44:44.849,33 St & 47 Ave,6185.04,Jackson Ave & 46 Rd,6203.02,40.74283,-73.9321,40.74524768,-73.94733276,member,12.7898,15,1.3111393849671331,1.3111393849671331,6.150867339444558,Midday,3,2,0,0,1,Winter
1593430E987BA1AC,classic_bike,2023-01-03 09:25:22.477,2023-01-03 09:30:34.713,Ave D & E 8 St,5506.1,E 2 St & Avenue A,5553.1,40.72368361,-73.97574813,40.72307749068673,-73.98583620786667,casual,5.2039333333333335,9,0.8528007778961098,0.8528007778961098,9.832571517781403,Morning,0,1,0,1,1,Winter
85BBD35E32076ADA,classic_bike,2023-01-08 17:46:04.446,2023-01-08 18:22:34.122,Norman St & Wyckoff Ave,4654.01,Emerson Pl & Myrtle Ave,4683.02,40.69517,-73.90311,40.69363137,-73.96223558,member,36.4946,17,4.987681355764228,4.987681355764228,8.200141427659261,Evening,3,6,1,1,1,Winter
05982432670A8DB3,classic_bike,2023-01-06 19:20:30.905,2023-01-06 19:30:43.247,E 9 St & 5 Ave,5872.1,W 15 St & 10 Ave,6115.09,40.73275887045087,-73.99581670761108,40.74275382865903,-74.00747358798981,member,10.2057,19,1.4831574257675595,1.4831574257675595,8.719582737691054,Evening,0,4,0,1,1,Winter
4C2CFE92410126A4,electric_bike,2023-01-07 12:59:12.156,2023-01-07 13:07:34.075,South St & Pike St,5159.07,E 2 St & Avenue A,5553.1,40.70991806921533,-73.99161100387573,40.72307749068673,-73.98583620786667,member,8.365316666666667,12,1.5420791506892024,1.5420791506892024,11.060519610696405,Midday,0,5,1,0,1,Winter
33E6ECB03AD3419B,classic_bike,2023-01-11 08:14:42.287,2023-01-11 08:46:18.779,E 97 St & 3 Ave,7365.08,W 29 St & 9 Ave,6416.06,40.7859201,-73.94860294,40.7500727,-73.99839279,member,31.6082,8,5.785334574825049,5.785334574825049,10.981962734021645,Morning,1,2,0,1,1,Winter
602DD4FAFC82695C,classic_bike,2023-01-02 17:08:47.220,2023-01-02 17:18:22.531,Forsyth St & Canal St,5270.07,Bialystoker Pl & Delancey St,5335.03,40.7158155,-73.99422366,40.71622644,-73.98261206,member,9.588516666666669,17,0.9796966550765474,0.9796966550765474,6.13043720400891,Evening,0,0,0,1,1,Winter
5C736D2B2124C01A,classic_bike,2023-01-04 12:02:59.991,2023-01-04 12:08:26.960,3 Ave & Schermerhorn St,4437.01,State St & Smith St,4522.07,40.68683208,-73.9796772,40.68917,-73.9886,member,5.449483333333333,12,0.7959822245448815,0.7959822245448815,8.763937891242207,Midday,4,2,0,0,1,Winter
C72356609FD66617,electric_bike,2023-01-08 02:01:51.519,2023-01-08 02:11:41.508,Throop Ave & Myrtle Ave,4697.01,Suydam St & Knickerbocker Ave,4939.07,40.69622937,-73.94371094,40.702013,-73.923769,member,9.83315,2,1.7999521274158703,1.7999521274158703,10.982963510670764,Night,4,6,1,0,1,Winter
8EF019B412D61DBA,classic_bike,2023-01-03 17:50:34.149,2023-01-03 18:45:05.332,W 15 St & 7 Ave,6030.06,Adam Clayton Powell Blvd & W 132 St,7814.01,40.73935542,-73.99931783,40.813539,-73.94521,member,54.51971666666667,17,9.423441942872776,9.423441942872776,10.370679657586258,Evening,0,1,0,1,1,Winter
C7AB0783404D51FD,electric_bike,2023-01-09 12:37:59.346,2023-01-09 12:42:48.379,Broadway & W 38 St,6560.15,E 33 St & 5 Ave,6322.01,40.7529728216068,-73.98734897375107,40.74765947,-73.98490707,member,4.817216666666667,12,0.6256017261078347,0.6256017261078347,7.792072925888064,Midday,0,0,0,0,1,Winter
F04C515C23FA30FF,classic_bike,2023-01-09 12:20:40.151,2023-01-09 12:23:34.864,E 6 St & 2 Ave,5669.12,E 7 St & Avenue A,5626.07,40.72737869323223,-73.98840844631195,40.72621788,-73.98379855,member,2.9118833333333334,12,0.4093442959698465,0.4093442959698465,8.434629738436449,Midday,0,0,0,0,1,Winter
4833E86E13EA120B,classic_bike,2023-01-05 09:55:50.948,2023-01-05 10:14:09.487,E 25 St & 2 Ave,6046.02,Division St & Bowery,5270.08,40.73912601,-73.97973776,40.714193,-73.996732,member,18.30898333333333,9,3.120434391422572,3.120434391422572,10.2259126067634,Morning,0,3,0,1,1,Winter
5388DB7E7D6FCE1E,classic_bike,2023-01-03 07:28:24.491,2023-01-03 07:31:39.968,E 40 St & Park Ave,6432.11,E 39 St & 2 Ave,6345.08,40.750756,-73.978326,40.74803319428767,-73.973827958107,member,3.25795,7,0.4850105627766155,0.4850105627766155,8.932191644008327,Morning,0,1,0,1,1,Winter
7D3813EEFC35B932,classic_bike,2023-01-14 17:36:08.563,2023-01-14 17:41:00.712,Greenwich St & Perry St,5922.04,W 16 St & The High Line,6233.05,40.73498,-74.00697,40.74334935,-74.00681753,member,4.86915,17,0.9307179121528798,0.9307179121528798,11.46875219066424,Evening,0,5,1,1,1,Winter
AB6A5C3E30A53849,classic_bike,2023-01-11 09:04:57.652,2023-01-11 09:14:38.715,Broadway & W 56 St,6847.02,E 47 St & Park Ave,6584.12,40.7652654,-73.98192338,40.75510267,-73.97498696,member,9.684383333333331,9,1.2721274474295838,1.2721274474295838,7.881518545745474,Morning,1,2,0,1,1,Winter
B75274F4BA3B935C,electric_bike,2023-01-06 13:45:56.071,2023-01-06 13:50:04.344,E 32 St & Park Ave,6280.12,1 Ave & E 39 St,6303.01,40.7457121,-73.98194829,40.74714,-73.97113,member,4.137883333333333,13,0.9250808732321082,0.9250808732321082,13.413827293485758,Midday,0,4,0,0,1,Winter
025FA637547E83B6,electric_bike,2023-01-06 12:55:01.532,2023-01-06 13:00:10.841,W 24 St & 7 Ave,6257.03,W 30 St & 10 Ave,6459.07,40.74487634,-73.99529885,40.752694,-74.002353,casual,5.155150000000001,12,1.0529809743896146,1.0529809743896146,12.255484023428387,Midday,0,4,0,0,1,Winter
7AE17E774D86B797,classic_bike,2023-01-04 10:22:05.541,2023-01-04 10:50:49.115,W 33 St & 10 Ave,6492.04,Water St &  Fletcher St,5024.1,40.75377336836039,-73.99937599897385,40.706410755236135,-74.00559738278389,member,28.726233333333333,10,5.292509115095616,5.292509115095616,11.054374697195604,Morning,0,2,0,0,1,Winter
057073E3146EEE87,electric_bike,2023-01-08 12:07:46.487,2023-01-08 12:21:49.727,Morton St & West St,5772.07,W 36 St & 7 Ave,6483.06,40.73142107,-74.01077986,40.752149,-73.989539,member,14.054,12,2.917976084044886,2.917976084044886,12.457561195580842,Midday,0,6,1,0,1,Winter
DF1C57869CEE4D1A,electric_bike,2023-01-01 21:17:14.401,2023-01-01 21:21:36.597,W 15 St & 7 Ave,6030.06,W 25 St & 6 Ave,6215.04,40.73935542,-73.99931783,40.74395411,-73.99144871,casual,4.369933333333334,21,0.8372527507156571,0.8372527507156571,11.495636480252807,Night,0,6,1,0,1,Winter
4065EAB65CF1CF3E,classic_bike,2023-01-02 12:36:10.908,2023-01-02 13:12:53.483,Front St & Jay St,4895.03,Greenpoint Ave & Manhattan Ave,5785.05,40.702461,-73.986842,40.73026,-73.95394,casual,36.70958333333333,12,4.152633482529484,4.152633482529484,6.787274229983608,Midday,0,0,0,0,1,Winter
355082B29C93624F,classic_bike,2023-01-14 00:06:34.209,2023-01-14 00:25:23.452,Allen St & Stanton St,5484.09,W 17 St & 8 Ave,6148.02,40.722055,-73.989111,40.74177603,-74.00149746,member,18.820716666666662,0,2.4285794043738096,2.4285794043738096,7.742253753838382,Night,0,5,1,0,1,Winter
EA50A56C2AF98B65,classic_bike,2023-01-02 14:58:32.294,2023-01-02 15:22:24.515,W 47 St & 6 Ave,6667.04,W 35 St & 9 Ave,6569.09,40.758397,-73.98255,40.75414519263519,-73.9960889518261,casual,23.87035,14,1.2344970793798775,1.2344970793798775,3.1030053921619354,Midday,0,0,0,0,1,Winter
